"country","city","variable","2009","2010","2011","2012","2013","2014","2015","2016","2017","2018","2019","lon","lat"
"Australia","Canberra","Population density (inhabitants per km²)",150,153,156,159,162,165,167,171,176,182,187,149.1310324,-35.2801846
"Australia","Geelong","Population density (inhabitants per km²)",56,57,58,59,60,61,63,65,66,68,70,144.3598426,-38.1492994
"Australia","Gold Coast","Population density (inhabitants per km²)",273,279,284,291,298,303,309,317,324,332,339,153.4,-28.016667
"Australia","Greater Adelaide","Population density (inhabitants per km²)",379,384,387,391,395,399,402,406,410,415,421,138.6007456,-34.9284989
"Australia","Greater Brisbane","Population density (inhabitants per km²)",130,133,135,138,141,144,146,149,152,155,158,153.0260341,-27.4704528
"Australia","Greater Melbourne","Population density (inhabitants per km²)",403,410,417,426,437,447,458,471,481,491,500,144.9630576,-37.8136276
"Australia","Greater Perth","Population density (inhabitants per km²)",270,277,285,294,302,307,311,314,318,323,329,115.8616783,-31.9513993
"Australia","Greater Sydney","Population density (inhabitants per km²)",362,367,372,377,384,390,398,405,413,418,423,150.7214362,-33.8048488
"Australia","Newcastle","Population density (inhabitants per km²)",271,274,277,280,282,284,286,289,292,296,300,151.7816802,-32.9282712
"Australia","Wollongong","Population density (inhabitants per km²)",639,647,652,656,662,669,675,683,689,694,700,150.8931132,-34.4248336
"Austria","Graz","Population density (inhabitants per km²)",194,196,197,199,200,202,204,207,210,211,213,15.439504,47.070714
"Austria","Innsbruck","Population density (inhabitants per km²)",126,127,128,129,130,132,134,136,138,139,139,11.4041024,47.2692124
"Austria","Klagenfurt","Population density (inhabitants per km²)",105,105,105,105,106,106,107,107,108,108,108,14.3122246,46.6364598
"Austria","Linz","Population density (inhabitants per km²)",172,172,172,173,174,175,177,180,181,182,184,14.28583,48.30694
"Austria","Salzburg","Population density (inhabitants per km²)",226,227,227,228,230,231,234,238,240,241,243,13.05501,47.80949
"Austria","Wien","Population density (inhabitants per km²)",279,281,283,285,288,292,296,302,306,309,310,16.3718643,48.2081664
"Belgium","Antwerpen","Population density (inhabitants per km²)",867,873,884,895,901,905,910,915,921,926,931,4.4051485,51.2213404
"Belgium","Brugge","Population density (inhabitants per km²)",388,389,390,392,394,394,395,396,397,398,399,3.2247552,51.2091807
"Belgium","Bruxelles/Brussel/Leuven","Population density (inhabitants per km²)",624,631,641,648,654,658,663,669,672,677,682,4.356356,50.8489068
"Belgium","Charleroi","Population density (inhabitants per km²)",347,348,350,351,352,352,352,353,352,353,353,4.44601,50.4096349
"Belgium","Gent","Population density (inhabitants per km²)",492,497,502,505,507,510,513,517,521,524,527,3.7303351,51.0500182
"Belgium","Liège","Population density (inhabitants per km²)",386,389,392,394,396,398,399,401,402,403,404,5.5697498,50.6329586
"Belgium","Mons","Population density (inhabitants per km²)",458,460,463,465,467,470,471,471,472,472,473,3.9523135,50.4546634
"Belgium","Namur","Population density (inhabitants per km²)",227,229,231,232,233,234,235,236,237,239,239,4.8650729,50.4649359
"Bulgaria","Burgas","Population density (inhabitants per km²)",94,94,93,93,93,93,93,93,93,93,92,27.4626361,42.5047926
"Bulgaria","Plovdiv","Population density (inhabitants per km²)",199,198,198,197,196,196,196,195,194,194,193,24.7452904,42.1354079
"Bulgaria","Sofia","Population density (inhabitants per km²)",266,268,269,269,270,271,271,272,272,272,272,23.3218675,42.6977082
"Bulgaria","Varna","Population density (inhabitants per km²)",198,198,199,199,198,198,198,198,198,198,197,27.9147333,43.2140504
"Canada","Calgary","Population density (inhabitants per km²)",76,78,79,81,84,86,88,90,91,92,94,-114.0718831,51.0447331
"Canada","Edmonton","Population density (inhabitants per km²)",62,63,64,66,68,70,71,73,74,75,77,-113.4937266,53.5460983
"Canada","Halifax","Population density (inhabitants per km²)",43,44,44,44,45,45,45,45,46,47,48,-63.1005273,44.8857087
"Canada","Hamilton","Population density (inhabitants per km²)",214,215,216,217,219,220,221,223,226,229,232,-79.8711024,43.2557206
"Canada","Kitchener","Population density (inhabitants per km²)",210,212,215,217,218,220,222,226,231,237,243,-80.4925337,43.4516395
"Canada","London","Population density (inhabitants per km²)",100,100,101,101,102,102,103,104,106,109,111,-81.2452768,42.9849233
"Canada","Montreal","Population density (inhabitants per km²)",341,345,349,352,355,358,359,362,367,373,379,-73.5673919,45.5018869
"Canada","Ottawa","Population density (inhabitants per km²)",113,115,117,118,120,121,122,123,125,128,130,-75.6971931,45.4215296
"Canada","Quebec","Population density (inhabitants per km²)",113,115,116,117,118,119,120,121,121,122,124,-71.2074596,46.8130816
"Canada","Saskatoon","Population density (inhabitants per km²)",65,67,69,71,73,74,75,77,79,81,83,-106.6701577,52.157902
"Canada","Sherbrooke","Population density (inhabitants per km²)",50,50,51,51,52,52,52,52,53,54,54,-71.893674,45.4042669
"Canada","Toronto","Population density (inhabitants per km²)",412,419,425,431,436,441,444,450,457,465,474,-79.3831843,43.653226
"Canada","Vancouver","Population density (inhabitants per km²)",769,783,793,808,822,838,850,863,874,888,904,-123.1207375,49.2827291
"Canada","Victoria","Population density (inhabitants per km²)",337,340,341,347,353,358,364,372,378,383,390,-123.3656444,48.4284207
"Canada","Windsor","Population density (inhabitants per km²)",238,237,237,239,241,242,243,246,248,252,254,-83.0363633,42.3149367
"Canada","Winnipeg","Population density (inhabitants per km²)",58,59,60,61,61,62,63,64,65,66,67,-97.1385145,49.8954221
"Chile","Antofagasta","Population density (inhabitants per km²)",11,11,11,11,12,12,12,12,12,13,13,-70.3975022,-23.6509279
"Chile","Concepcion","Population density (inhabitants per km²)",466,469,473,477,480,483,487,490,493,496,499,-73.0443904,-36.8201352
"Chile","Coquimbo-La Serena","Population density (inhabitants per km²)",105,108,110,113,115,118,120,123,126,129,132,-71.2519374,-29.9026691
"Chile","Puerto Montt","Population density (inhabitants per km²)",133,136,139,142,145,147,150,152,155,157,159,-72.9411364,-41.468917
"Chile","Rancagua","Population density (inhabitants per km²)",110,111,113,115,116,118,119,121,123,125,127,-70.7406259,-34.1701324
"Chile","Santiago","Population density (inhabitants per km²)",585,591,598,605,611,616,623,631,643,659,678,-70.6692655,-33.4488897
"Chile","Talca","Population density (inhabitants per km²)",527,535,543,552,560,568,578,587,596,606,616,-71.6484804,-35.4232444
"Chile","Temuco","Population density (inhabitants per km²)",128,129,131,132,134,135,136,138,139,140,142,-72.5904598,-38.7383905
"Chile","Valparaiso","Population density (inhabitants per km²)",667,674,681,688,695,702,709,716,724,732,742,-71.6126885,-33.047238
"Colombia","Armenia","Population density (inhabitants per km²)",866,870,874,878,881,885,890,897,905,916,931,-75.6756888,4.5350004
"Colombia","Barranquilla","Population density (inhabitants per km²)",1443,1462,1480,1498,1515,1532,1549,1571,1598,1642,1709,-74.8069813,11.0041072
"Colombia","Bogota D.C.","Population density (inhabitants per km²)",2935,2973,3008,3039,3068,3095,3122,3154,3191,3247,3347,-74.072092,4.7109886
"Colombia","Bucaramanga","Population density (inhabitants per km²)",839,854,869,883,897,911,925,940,957,979,1008,-73.1227416,7.119349
"Colombia","Buenaventura","Population density (inhabitants per km²)",42,42,42,42,43,43,43,43,43,44,44,-77.0197212,3.8830471
"Colombia","Cali","Population density (inhabitants per km²)",1496,1506,1515,1523,1530,1537,1544,1553,1562,1580,1592,-76.5319854,3.4516467
"Colombia","Cartagena","Population density (inhabitants per km²)",558,565,571,577,583,588,594,600,608,619,639,-75.4832311,10.3932277
"Colombia","Cucuta","Population density (inhabitants per km²)",543,549,554,558,563,567,571,577,587,605,637,-72.4966896,7.8890971
"Colombia","Ibague","Population density (inhabitants per km²)",355,358,361,364,367,370,373,376,379,382,387,-75.242438,4.444676
"Colombia","Manizales","Population density (inhabitants per km²)",512,515,519,522,526,530,534,540,546,552,561,-75.5027698,5.0629743
"Colombia","Medellin","Population density (inhabitants per km²)",3471,3525,3578,3630,3681,3732,3784,3841,3904,3982,4084,-75.5658153,6.2476376
"Colombia","Monteria","Population density (inhabitants per km²)",141,143,145,146,148,150,151,153,155,157,160,-75.8785348,8.750983
"Colombia","Neiva","Population density (inhabitants per km²)",261,264,267,270,273,276,279,282,285,289,292,-75.2809001,2.9344837
"Colombia","Palmira","Population density (inhabitants per km²)",328,330,332,334,335,336,338,339,341,345,347,-76.2971657,3.5379718
"Colombia","Pasto","Population density (inhabitants per km²)",311,313,315,317,318,320,321,323,324,326,326,-77.285787,1.2058837
"Colombia","Pereira","Population density (inhabitants per km²)",932,940,948,955,961,968,975,984,993,1004,1017,-75.690601,4.8087174
"Colombia","Popayan","Population density (inhabitants per km²)",588,595,603,610,617,624,631,639,646,654,662,-76.6147395,2.4448143
"Colombia","Riohacha","Population density (inhabitants per km²)",48,49,50,51,52,54,55,56,58,61,63,-72.9167838,11.5384151
"Colombia","Santa Marta","Population density (inhabitants per km²)",180,184,187,190,193,196,199,202,206,211,221,-74.2110227,11.2403547
"Colombia","Sincelejo","Population density (inhabitants per km²)",877,887,898,908,919,929,940,952,965,984,1015,-75.3905567,9.3045773
"Colombia","Valledupar","Population density (inhabitants per km²)",97,98,100,102,104,105,107,109,112,115,121,-73.2436335,10.4742449
"Colombia","Villavicencio","Population density (inhabitants per km²)",336,344,352,359,366,374,381,388,395,402,408,-73.6285475,4.1491688
"Croatia","Split","Population density (inhabitants per km²)",125,125,125,125,125,125,124,124,124,123,123,16.4435148,43.5147118
"Croatia","Zagreb","Population density (inhabitants per km²)",239,240,240,241,241,241,242,241,241,240,240,15.981919,45.8150108
"Czechia","Brno","Population density (inhabitants per km²)",259,260,261,265,266,267,268,269,270,272,273,16.6068371,49.1950602
"Czechia","Ostrava","Population density (inhabitants per km²)",526,524,521,514,511,509,506,504,503,501,499,18.2625243,49.8209226
"Czechia","Plzeň","Population density (inhabitants per km²)",165,166,166,166,167,167,168,169,170,171,172,13.3736371,49.7384314
"Czechia","Praha","Population density (inhabitants per km²)",352,358,362,362,365,366,371,374,378,383,388,14.4378005,50.0755381
"Denmark","Aalborg","Population density (inhabitants per km²)",92,92,93,93,94,95,95,96,97,97,98,9.921747,57.0488195
"Denmark","Århus","Population density (inhabitants per km²)",196,198,201,202,204,206,208,210,213,216,218,10.203921,56.162939
"Denmark","København","Population density (inhabitants per km²)",528,534,539,544,549,555,561,568,574,578,582,12.5683371,55.6760968
"Denmark","Odense","Population density (inhabitants per km²)",154,154,154,154,155,156,156,157,158,159,160,10.40237,55.403756
"Estonia","Tallinn","Population density (inhabitants per km²)",127,128,129,130,130,131,131,133,134,136,138,24.7535746,59.4369608
"Finland","Helsinki/Helsingfors","Population density (inhabitants per km²)",283,286,289,292,296,300,304,308,312,315,319,24.938379,60.1698557
"Finland","Oulu/Uleåborg","Population density (inhabitants per km²)",32,33,33,34,34,35,35,36,36,36,36,25.4650773,65.0120888
"Finland","Tampere/Tammerfors","Population density (inhabitants per km²)",59,59,60,61,61,62,63,63,64,64,65,23.7609535,61.4977524
"Finland","Turku/Åbo","Population density (inhabitants per km²)",76,76,77,78,78,79,79,80,80,81,81,22.2666303,60.4518126
"France","Amiens","Population density (inhabitants per km²)",113,113,113,113,114,114,114,115,115,115,115,2.295753,49.894067
"France","Angers","Population density (inhabitants per km²)",165,166,168,169,170,172,173,174,175,177,178,-0.5518257,47.4711616
"France","Annecy","Population density (inhabitants per km²)",209,213,216,218,222,226,229,232,233,236,239,6.129384,45.899247
"France","Annemasse-Geneva (French part)","Population density (inhabitants per km²)",205,210,215,220,226,231,236,240,243,247,250,6.234158,46.193253
"France","Avignon","Population density (inhabitants per km²)",333,334,337,339,341,345,346,348,349,350,351,4.805528,43.949317
"France","Bayonne","Population density (inhabitants per km²)",212,213,215,218,221,223,227,230,233,236,239,-1.474841,43.492949
"France","Besançon","Population density (inhabitants per km²)",107,107,107,108,109,109,110,110,110,111,111,6.0240539,47.237829
"France","Bordeaux","Population density (inhabitants per km²)",185,187,189,192,196,199,202,204,207,210,213,-0.57918,44.837789
"France","Brest","Population density (inhabitants per km²)",283,284,284,285,286,287,289,290,291,292,293,-4.4869723,48.3907119
"France","Caen","Population density (inhabitants per km²)",172,172,173,174,175,176,177,178,179,180,181,-0.370679,49.182863
"France","Cannes-Antibes","Population density (inhabitants per km²)",888,886,890,892,894,893,890,889,889,886,892,7.0923186,43.5745065
"France","Chambéry","Population density (inhabitants per km²)",199,202,205,206,208,211,211,213,214,216,218,5.917781,45.564601
"France","Clermont-Ferrand","Population density (inhabitants per km²)",165,166,168,169,170,171,172,173,174,176,177,3.087025,45.777222
"France","Dijon","Population density (inhabitants per km²)",101,102,102,103,103,104,104,104,105,105,105,5.04148,47.322047
"France","Dunkerque","Population density (inhabitants per km²)",306,306,305,305,305,305,305,304,302,301,300,2.3767763,51.0343684
"France","Fort-de-France","Population density (inhabitants per km²)",396,394,392,388,385,384,381,377,373,369,365,2.213749,46.227638
"France","Grenoble","Population density (inhabitants per km²)",236,237,239,240,242,243,244,243,244,244,245,5.724524,45.188529
"France","Hayange","Population density (inhabitants per km²)",283,284,285,287,289,290,290,292,293,294,296,6.062166,49.329827
"France","Le Havre","Population density (inhabitants per km²)",339,339,338,338,337,338,338,336,336,337,335,0.107929,49.49437
"France","Le Mans","Population density (inhabitants per km²)",152,153,154,155,155,156,156,156,156,156,157,0.199556,48.00611
"France","Lens","Population density (inhabitants per km²)",925,923,923,918,916,919,921,919,919,918,917,2.83183,50.42893
"France","Lille","Population density (inhabitants per km²)",871,874,876,881,887,891,893,895,897,901,905,3.057256,50.62925
"France","Limoges","Population density (inhabitants per km²)",94,94,95,95,95,95,95,95,95,94,94,1.261105,45.833619
"France","Lyon","Population density (inhabitants per km²)",448,452,456,461,466,472,477,481,484,488,493,4.835659,45.764043
"France","Marseille","Population density (inhabitants per km²)",453,454,455,457,459,462,464,465,466,469,471,5.36978,43.296482
"France","Metz","Population density (inhabitants per km²)",194,194,194,194,195,194,195,196,195,196,198,6.1757156,49.1193089
"France","Montpellier","Population density (inhabitants per km²)",274,277,283,287,291,296,300,304,308,313,318,3.876716,43.610769
"France","Mulhouse","Population density (inhabitants per km²)",330,329,331,333,335,334,334,333,334,334,334,7.335888,47.750839
"France","Nancy","Population density (inhabitants per km²)",163,163,163,163,162,163,163,163,163,163,163,6.184417,48.692054
"France","Nantes","Population density (inhabitants per km²)",250,253,257,260,264,268,272,276,279,283,287,-1.553621,47.218371
"France","Nice","Population density (inhabitants per km²)",291,292,292,292,292,293,293,293,293,295,297,7.2619532,43.7101728
"France","Nîmes","Population density (inhabitants per km²)",217,219,223,226,230,231,232,233,234,235,235,4.360054,43.836699
"France","Orléans","Population density (inhabitants per km²)",124,124,125,126,126,127,128,129,130,131,131,1.909251,47.902964
"France","Paris","Population density (inhabitants per km²)",660,663,667,669,673,677,680,682,685,687,689,2.3522219,48.856614
"France","Pau","Population density (inhabitants per km²)",126,126,126,126,126,127,127,128,128,128,128,-0.370797,43.2951
"France","Perpignan","Population density (inhabitants per km²)",209,210,213,215,218,220,223,225,225,226,228,2.8948332,42.6886591
"France","Poitiers","Population density (inhabitants per km²)",101,102,102,103,104,105,105,106,106,107,107,0.340375,46.580224
"France","Reims","Population density (inhabitants per km²)",106,106,106,107,107,108,108,108,109,109,109,4.031696,49.258329
"France","Rennes","Population density (inhabitants per km²)",174,177,179,181,184,187,189,191,193,195,197,-1.6777926,48.117266
"France","Rouen","Population density (inhabitants per km²)",244,245,246,247,248,249,249,250,250,251,252,1.099971,49.443232
"France","Saint-Denis","Population density (inhabitants per km²)",531,532,537,539,540,546,552,554,558,562,571,2.357443,48.936181
"France","Saint-Étienne","Population density (inhabitants per km²)",294,295,295,297,299,299,300,301,302,302,303,4.3871779,45.439695
"France","Strasbourg","Population density (inhabitants per km²)",360,360,361,364,366,367,369,371,373,377,380,7.7521113,48.5734053
"France","Toulon","Population density (inhabitants per km²)",535,535,535,539,540,543,548,552,554,560,565,5.928,43.124228
"France","Toulouse","Population density (inhabitants per km²)",193,195,198,201,205,208,211,213,215,218,221,1.444209,43.604652
"France","Tours","Population density (inhabitants per km²)",136,136,137,138,139,140,141,141,141,142,143,0.68484,47.394144
"France","Valence","Population density (inhabitants per km²)",194,194,196,197,197,199,202,203,204,206,206,4.89236,44.933393
"France","Valenciennes","Population density (inhabitants per km²)",463,464,464,464,464,466,467,467,467,467,467,3.518332,50.357113
"Germany","Aachen","Population density (inhabitants per km²)",778,775,740,742,744,746,750,759,757,759,761,6.0838868,50.7753455
"Germany","Augsburg","Population density (inhabitants per km²)",361,361,361,363,366,370,374,380,383,387,390,10.89779,48.3705449
"Germany","Berlin","Population density (inhabitants per km²)",513,514,494,500,506,512,518,526,533,538,543,13.404954,52.5200066
"Germany","Bielefeld","Population density (inhabitants per km²)",722,720,725,724,725,726,728,736,736,736,737,8.5324708,52.0302285
"Germany","Bonn","Population density (inhabitants per km²)",703,704,678,681,684,686,691,702,706,710,712,7.0982068,50.73743
"Germany","Braunschweig-Salzgitter","Population density (inhabitants per km²)",334,333,326,326,326,327,329,333,333,333,333,10.5267696,52.2688736
"Germany","Bremen","Population density (inhabitants per km²)",357,357,353,354,355,356,358,362,366,367,368,8.8016937,53.0792962
"Germany","Chemnitz","Population density (inhabitants per km²)",429,426,418,416,415,413,414,417,414,413,412,12.9208547,50.8282222
"Germany","Darmstadt","Population density (inhabitants per km²)",546,547,537,544,548,552,558,568,574,576,580,8.6511929,49.8728253
"Germany","Dresden","Population density (inhabitants per km²)",378,379,372,374,376,378,380,384,384,385,386,13.7372621,51.0504088
"Germany","Düsseldorf","Population density (inhabitants per km²)",1334,1333,1315,1318,1323,1328,1336,1354,1354,1360,1364,6.7734556,51.2277411
"Germany","Erfurt","Population density (inhabitants per km²)",224,224,220,220,221,221,222,225,225,226,226,11.0298799,50.9847679
"Germany","Erlangen","Population density (inhabitants per km²)",369,369,366,367,370,371,373,378,381,383,385,11.0119611,49.5896744
"Germany","Frankfurt am Main","Population density (inhabitants per km²)",677,679,669,675,680,687,696,707,713,719,723,8.6821267,50.1109221
"Germany","Freiburg im Breisgau","Population density (inhabitants per km²)",334,335,324,328,331,334,337,343,346,349,350,7.8421043,47.9990077
"Germany","Göttingen","Population density (inhabitants per km²)",194,192,186,185,185,184,184,187,185,186,186,9.9158035,51.5412804
"Germany","Halle an der Saale","Population density (inhabitants per km²)",340,338,332,331,331,330,330,335,335,336,335,11.9662371,51.4953567
"Germany","Hamburg","Population density (inhabitants per km²)",430,431,419,422,425,427,431,437,442,445,448,9.9871703,53.5488282
"Germany","Hannover","Population density (inhabitants per km²)",404,403,393,394,396,398,401,407,408,410,411,9.7320104,52.3758916
"Germany","Heidelberg","Population density (inhabitants per km²)",724,726,716,722,728,734,743,751,761,764,765,8.6724335,49.3987524
"Germany","Heilbronn","Population density (inhabitants per km²)",472,472,457,459,461,464,469,477,482,487,490,9.210879,49.1426929
"Germany","Ingolstadt","Population density (inhabitants per km²)",158,158,157,159,160,162,164,166,168,169,170,11.4226498,48.7667395
"Germany","Kaiserslautern","Population density (inhabitants per km²)",209,209,206,205,205,204,204,206,207,207,208,7.7491265,49.4400657
"Germany","Karlsruhe","Population density (inhabitants per km²)",554,554,547,550,554,558,561,570,575,578,580,8.4036527,49.0068901
"Germany","Kassel","Population density (inhabitants per km²)",299,298,294,294,294,294,294,298,299,300,301,9.4797461,51.3127114
"Germany","Kiel","Population density (inhabitants per km²)",265,265,260,261,262,263,264,267,268,268,268,10.1227652,54.3232927
"Germany","Koblenz","Population density (inhabitants per km²)",334,333,334,333,334,335,336,339,341,341,342,7.5889959,50.3569429
"Germany","Köln","Population density (inhabitants per km²)",1001,1002,994,1000,1007,1013,1022,1036,1043,1046,1050,6.9602786,50.937531
"Germany","Krefeld","Population density (inhabitants per km²)",1204,1199,1144,1140,1140,1140,1142,1155,1162,1162,1163,6.565208,51.3345409
"Germany","Leipzig","Population density (inhabitants per km²)",358,358,346,349,352,355,361,367,372,376,378,12.3730747,51.3396955
"Germany","Lübeck","Population density (inhabitants per km²)",253,252,250,250,251,252,254,256,257,257,257,10.6865593,53.8654673
"Germany","Magdeburg","Population density (inhabitants per km²)",176,176,172,172,172,171,172,173,174,173,173,11.6276237,52.1205333
"Germany","Mainz","Population density (inhabitants per km²)",581,581,583,585,589,593,599,608,615,618,623,8.2472526,49.9928617
"Germany","Mannheim-Ludwigshafen","Population density (inhabitants per km²)",651,651,630,632,635,639,644,652,655,658,661,8.4447451,49.4774018
"Germany","Mönchengladbach","Population density (inhabitants per km²)",866,864,852,850,850,850,854,863,866,869,868,6.4315392,51.1941686
"Germany","München","Population density (inhabitants per km²)",455,457,456,463,470,476,482,490,495,496,500,11.5819806,48.1351253
"Germany","Münster","Population density (inhabitants per km²)",294,295,294,300,301,303,305,310,312,313,314,7.6261347,51.9606649
"Germany","Nürnberg","Population density (inhabitants per km²)",412,411,402,405,408,411,413,419,421,424,426,11.0766654,49.4521018
"Germany","Oldenburg (Oldenburg)","Population density (inhabitants per km²)",263,264,260,261,262,263,265,269,272,274,275,8.2145521,53.1434501
"Germany","Osnabrück","Population density (inhabitants per km²)",362,362,349,349,351,351,352,361,361,363,364,8.0471788,52.2799112
"Germany","Paderborn","Population density (inhabitants per km²)",227,227,224,224,224,225,226,230,231,231,232,8.7575093,51.7189205
"Germany","Pforzheim","Population density (inhabitants per km²)",501,500,485,486,489,493,497,506,510,513,517,8.6946286,48.8921862
"Germany","Regensburg","Population density (inhabitants per km²)",179,179,179,180,181,183,185,188,190,192,193,12.1016236,49.0134297
"Germany","Rostock","Population density (inhabitants per km²)",169,169,167,167,168,168,168,170,171,171,172,12.0991466,54.0924406
"Germany","Ruhrgebiet","Population density (inhabitants per km²)",1176,1169,1146,1143,1141,1140,1142,1155,1157,1156,1155,7.1980843,51.5450884
"Germany","Saarbrücken","Population density (inhabitants per km²)",600,596,584,582,580,578,577,581,583,583,581,6.997547,49.2381697
"Germany","Siegen","Population density (inhabitants per km²)",364,362,353,352,351,350,351,357,353,353,354,8.0209591,50.8838492
"Germany","Stuttgart","Population density (inhabitants per km²)",860,860,840,845,852,859,868,881,889,895,898,9.1829321,48.7758459
"Germany","Trier","Population density (inhabitants per km²)",177,177,178,179,180,180,182,188,185,185,186,6.6371433,49.749992
"Germany","Ulm","Population density (inhabitants per km²)",277,277,271,272,274,276,278,282,284,287,289,9.9876076,48.4010822
"Germany","Wiesbaden","Population density (inhabitants per km²)",475,475,463,466,468,470,472,475,478,480,480,8.2397608,50.0782184
"Germany","Wolfsburg","Population density (inhabitants per km²)",139,139,137,137,137,137,138,139,139,139,139,10.7865461,52.4226503
"Germany","Wuppertal","Population density (inhabitants per km²)",2023,2010,1963,1961,1963,1965,1976,2001,2013,2020,2024,7.1507636,51.2562128
"Germany","Würzburg","Population density (inhabitants per km²)",223,222,216,216,215,216,216,217,219,219,221,9.9533548,49.7913044
"Greece","Athina","Population density (inhabitants per km²)",1969,1970,1965,1949,1922,1897,1876,1854,1850,1841,1833,23.7275388,37.9838096
"Greece","Thessaloniki","Population density (inhabitants per km²)",387,389,389,388,386,384,382,379,379,378,378,22.9444191,40.6400629
"Hungary","Budapest","Population density (inhabitants per km²)",454,457,460,456,458,459,462,464,464,466,469,19.040235,47.497912
"Hungary","Debrecen","Population density (inhabitants per km²)",167,167,166,167,167,166,165,165,164,163,163,21.6254485,47.5288879
"Hungary","Miskolc","Population density (inhabitants per km²)",188,186,184,185,183,181,179,177,175,174,172,20.7784384,48.1034775
"Hungary","Nyíregyháza","Population density (inhabitants per km²)",146,144,143,146,145,145,145,145,145,144,142,21.7244053,47.9495324
"Hungary","Pécs","Population density (inhabitants per km²)",148,148,147,143,142,140,139,138,137,136,135,18.232266,46.0727345
"Hungary","Székesfehérvár","Population density (inhabitants per km²)",90,90,90,89,89,88,88,88,88,88,88,18.4221358,47.1860262
"Ireland","Cork","Population density (inhabitants per km²)",95,97,97,98,99,100,100,101,102,102,104,-8.4756035,51.8985143
"Ireland","Dublin","Population density (inhabitants per km²)",213,217,219,220,221,223,227,231,234,236,241,-6.2603097,53.3498053
"Ireland","Galway","Population density (inhabitants per km²)",40,41,41,41,41,41,41,41,42,42,43,-9.0512662,53.274001
"Ireland","Limerick","Population density (inhabitants per km²)",57,58,58,59,59,59,59,59,59,60,60,-8.6267299,52.663839
"Italy","Bari","Population density (inhabitants per km²)",654,656,659,660,659,658,656,655,652,650,647,16.8718715,41.1171432
"Italy","Bergamo","Population density (inhabitants per km²)",1603,1618,1637,1649,1656,1662,1664,1663,1667,1672,1677,9.6772698,45.6982642
"Italy","Bologna","Population density (inhabitants per km²)",364,367,370,373,376,378,380,381,384,385,387,11.3426163,44.494887
"Italy","Brescia","Population density (inhabitants per km²)",761,767,775,779,783,785,787,788,787,788,792,10.2118019,45.5415526
"Italy","Cagliari","Population density (inhabitants per km²)",246,247,248,248,249,249,249,248,248,247,247,9.1216613,39.2238411
"Italy","Catania","Population density (inhabitants per km²)",1028,1032,1036,1037,1042,1045,1048,1048,1046,1044,1042,15.0830304,37.5078772
"Italy","Firenze","Population density (inhabitants per km²)",417,420,423,425,429,431,432,432,432,431,429,11.2558136,43.7695604
"Italy","Genova","Population density (inhabitants per km²)",609,608,607,606,605,601,595,590,587,583,579,8.946256,44.4056499
"Italy","Messina","Population density (inhabitants per km²)",833,833,832,828,824,819,813,806,800,790,783,15.5542057,38.1937335
"Italy","Milano","Population density (inhabitants per km²)",1493,1504,1518,1533,1547,1562,1570,1575,1581,1588,1594,9.189982,45.4642035
"Italy","Modena","Population density (inhabitants per km²)",508,513,518,520,525,528,529,530,531,533,538,10.9252269,44.647128
"Italy","Napoli","Population density (inhabitants per km²)",2617,2626,2633,2636,2635,2636,2635,2632,2628,2624,2616,14.26812,40.8517983
"Italy","Padova","Population density (inhabitants per km²)",839,845,851,855,859,863,866,866,866,868,872,11.8767611,45.4064349
"Italy","Palermo","Population density (inhabitants per km²)",672,674,677,679,680,682,681,680,678,675,672,13.3614868,38.11569
"Italy","Parma","Population density (inhabitants per km²)",266,269,272,274,277,280,282,284,286,288,290,10.3279036,44.801485
"Italy","Perugia","Population density (inhabitants per km²)",207,210,212,213,214,214,213,213,213,213,212,12.3908279,43.1107168
"Italy","Prato","Population density (inhabitants per km²)",668,673,676,676,683,688,685,687,691,693,696,11.102228,43.8777049
"Italy","Reggio nell'Emilia","Population density (inhabitants per km²)",391,396,400,403,407,410,408,409,410,411,412,10.6296859,44.6989932
"Italy","Rimini","Population density (inhabitants per km²)",678,686,694,697,705,710,712,713,717,719,723,12.5695158,44.0678288
"Italy","Roma","Population density (inhabitants per km²)",654,662,668,674,685,692,696,699,702,703,704,12.4963655,41.9027835
"Italy","Salerno","Population density (inhabitants per km²)",671,672,674,677,676,675,673,672,671,668,666,14.7680961,40.6824408
"Italy","Taranto","Population density (inhabitants per km²)",399,400,400,399,398,397,395,393,391,389,386,17.2470303,40.4643606
"Italy","Torino","Population density (inhabitants per km²)",1026,1030,1032,1035,1039,1039,1035,1032,1030,1024,1019,7.686864,45.0703393
"Italy","Venezia","Population density (inhabitants per km²)",842,845,848,848,848,848,848,846,844,844,844,12.3155151,45.4408474
"Italy","Verona","Population density (inhabitants per km²)",688,690,691,693,697,699,700,700,700,702,704,10.9916215,45.4383842
"Japan","Akita","Population density (inhabitants per km²)",266,264,261,258,255,252,248,245,243,239,236,140.1034795,39.7199668
"Japan","Aomori","Population density (inhabitants per km²)",235,234,233,230,228,225,223,221,219,216,214,140.7473524,40.8222197
"Japan","Asahikawa","Population density (inhabitants per km²)",168,168,168,167,166,165,164,164,163,162,161,142.3650083,43.7708833
"Japan","Ashikaga","Population density (inhabitants per km²)",942,943,939,936,932,929,927,925,922,918,913,139.4497602,36.3401874
"Japan","Fuji","Population density (inhabitants per km²)",483,480,478,476,475,472,472,470,469,467,466,-80.992685,34.970328
"Japan","Fujieda","Population density (inhabitants per km²)",653,648,646,643,641,638,637,636,634,632,629,138.2575386,34.8673376
"Japan","Fukui","Population density (inhabitants per km²)",245,244,243,242,241,239,239,237,236,235,234,136.219623,36.0641386
"Japan","Fukuoka","Population density (inhabitants per km²)",1755,1761,1763,1764,1765,1765,1769,1772,1775,1777,1777,130.4016888,33.5901838
"Japan","Fukushima","Population density (inhabitants per km²)",292,290,284,280,278,277,273,272,270,267,265,140.4747856,37.7607991
"Japan","Hachinohe","Population density (inhabitants per km²)",305,304,301,298,295,292,289,286,284,280,277,141.4882743,40.5122055
"Japan","Hakodate","Population density (inhabitants per km²)",256,256,255,253,252,251,250,248,247,246,244,140.7290599,41.7686961
"Japan","Hamamatsu","Population density (inhabitants per km²)",576,572,569,567,565,563,562,560,559,557,555,137.7274159,34.7102752
"Japan","Himeji","Population density (inhabitants per km²)",609,610,609,608,606,604,604,603,602,600,599,134.6855509,34.8154176
"Japan","Hiroshima","Population density (inhabitants per km²)",780,779,777,776,773,771,775,773,771,769,766,132.4553055,34.3852894
"Japan","Hitachi","Population density (inhabitants per km²)",320,321,320,318,317,316,316,315,314,313,311,140.6504712,36.5991273
"Japan","Isesaki","Population density (inhabitants per km²)",608,609,607,604,601,599,598,597,595,593,591,139.1965435,36.3118354
"Japan","Kagoshima","Population density (inhabitants per km²)",713,712,709,705,701,696,688,683,679,674,669,130.5571392,31.5968539
"Japan","Kanazawa","Population density (inhabitants per km²)",480,482,481,480,478,477,476,475,473,472,470,136.6520376,36.5597341
"Japan","Kitakyushu","Population density (inhabitants per km²)",1292,1297,1299,1300,1302,1302,1305,1308,1310,1312,1313,130.8751773,33.8834976
"Japan","Kochi","Population density (inhabitants per km²)",299,299,296,294,291,288,285,282,279,276,273,133.5312383,33.5588821
"Japan","Kofu","Population density (inhabitants per km²)",359,357,355,353,350,348,346,344,342,340,337,138.5683001,35.662133
"Japan","Koriyama","Population density (inhabitants per km²)",303,302,296,292,289,288,284,283,280,278,275,140.3596822,37.4004776
"Japan","Kumamoto","Population density (inhabitants per km²)",580,581,579,577,576,573,571,567,565,562,559,130.7079369,32.8032164
"Japan","Kurume","Population density (inhabitants per km²)",950,954,955,956,957,957,959,961,963,965,965,130.5083557,33.3192356
"Japan","Kusatsu","Population density (inhabitants per km²)",1141,1146,1148,1149,1150,1150,1148,1148,1148,1148,1150,138.5960945,36.6207181
"Japan","Matsumoto","Population density (inhabitants per km²)",231,230,229,228,227,225,224,223,222,221,220,137.9719897,36.2380434
"Japan","Matsuyama","Population density (inhabitants per km²)",682,680,676,672,668,663,659,654,650,645,640,132.7653057,33.8393515
"Japan","Mito","Population density (inhabitants per km²)",528,530,527,525,523,520,520,519,517,516,513,140.4713723,36.3658764
"Japan","Miyazaki","Population density (inhabitants per km²)",354,355,354,353,351,349,346,343,342,339,337,131.4202196,31.9077285
"Japan","Morioka","Population density (inhabitants per km²)",152,151,149,148,147,146,145,144,143,141,139,141.1543303,39.7019558
"Japan","Nagano","Population density (inhabitants per km²)",363,361,360,358,356,354,353,351,350,348,346,138.1950371,36.6485258
"Japan","Nagasaki","Population density (inhabitants per km²)",830,828,822,817,811,804,800,793,786,778,770,129.8778888,32.7503334
"Japan","Nagoya","Population density (inhabitants per km²)",1138,1136,1136,1136,1137,1137,1139,1141,1142,1142,1143,136.9065571,35.1814506
"Japan","Naha","Population density (inhabitants per km²)",2253,2271,2284,2297,2307,2316,2338,2351,2360,2370,2383,127.6790208,26.2125758
"Japan","Niigata","Population density (inhabitants per km²)",1127,1125,1120,1113,1105,1097,1093,1084,1075,1065,1054,139.0363708,37.9161244
"Japan","Numazu","Population density (inhabitants per km²)",592,587,585,583,581,578,578,576,574,572,570,138.8635399,35.0956068
"Japan","Obihiro","Population density (inhabitants per km²)",114,114,113,113,112,112,111,111,110,109,109,143.197199,42.9233354
"Japan","Oita","Population density (inhabitants per km²)",389,389,387,385,383,381,379,377,375,372,369,131.6095148,33.2396084
"Japan","Okayama","Population density (inhabitants per km²)",559,560,559,557,556,554,553,552,550,548,546,133.919795,34.6555312
"Japan","Osaka","Population density (inhabitants per km²)",1942,1952,1950,1947,1943,1939,1937,1936,1933,1930,1928,135.5022535,34.6937249
"Japan","Sapporo","Population density (inhabitants per km²)",846,846,843,839,835,830,827,823,818,813,808,141.3544506,43.0617713
"Japan","Sendai","Population density (inhabitants per km²)",800,804,797,796,797,797,799,798,796,794,791,140.869418,38.268195
"Japan","Shimonoseki","Population density (inhabitants per km²)",377,376,374,371,368,365,364,361,358,355,352,130.9411759,33.9575297
"Japan","Shizuoka","Population density (inhabitants per km²)",509,505,503,501,500,497,497,495,494,492,490,138.3826773,34.9755668
"Japan","Takamatsu","Population density (inhabitants per km²)",722,719,717,714,711,709,706,703,699,696,692,134.0465405,34.342542
"Japan","Takasaki","Population density (inhabitants per km²)",606,607,605,602,600,597,597,595,594,592,589,139.0033576,36.3220692
"Japan","Tokushima","Population density (inhabitants per km²)",517,514,511,508,504,500,495,491,487,482,477,134.5549537,34.0703652
"Japan","Tokyo","Population density (inhabitants per km²)",3078,3125,3130,3132,3140,3151,3169,3186,3201,3216,3231,139.650027,35.6764225
"Japan","Toyama","Population density (inhabitants per km²)",308,307,306,304,302,301,300,298,297,295,293,137.2137211,36.6958223
"Japan","Toyohashi","Population density (inhabitants per km²)",598,598,598,599,600,601,604,606,607,608,609,137.3916837,34.7688528
"Japan","Utsunomiya","Population density (inhabitants per km²)",499,499,497,495,494,492,491,489,488,485,483,139.8826209,36.5550745
"Japan","Wakayama","Population density (inhabitants per km²)",798,797,791,786,779,772,767,760,754,748,740,135.1707405,34.2303678
"Japan","Yamagata","Population density (inhabitants per km²)",387,384,381,378,374,371,369,366,362,358,354,140.3396175,38.2554153
"Japan","Yokkaichi","Population density (inhabitants per km²)",527,523,521,519,517,515,512,510,508,506,503,136.6244121,34.9651064
"Korea","Chuncheon","Population density (inhabitants per km²)",244.9,238,241,242,243,244,246,248,249,249,249,127.7398952,37.8897796
"Korea","Dalseong","Population density (inhabitants per km²)",2799.9,2821,2818,2817,2815,2809,2801,2796,2789,2777,2756,128.5089708,35.7322821
"Korea","Deokjin","Population density (inhabitants per km²)",714.3,700,704,708,711,715,721,722,721,720,721,127.1120644,35.8581862
"Korea","Gimhae","Population density (inhabitants per km²)",1795.3,1788,1788,1789,1791,1796,1802,1803,1803,1800,1793,128.8452281,35.2721355
"Korea","Gumi","Population density (inhabitants per km²)",499.5,484,491,497,501,504,504,505,505,503,501,128.3555532,36.207309
"Korea","Gunsan","Population density (inhabitants per km²)",685.9,674,682,689,693,692,693,692,688,681,675,126.7366293,35.9676772
"Korea","Gwangsan","Population density (inhabitants per km²)",900.4,893,898,903,905,906,905,903,900,897,894,126.7528769,35.1650242
"Korea","Gyeongsan","Population density (inhabitants per km²)",607,577,583,590,597,606,616,620,623,627,631,128.8090748,35.8337972
"Korea","Heungdeok","Population density (inhabitants per km²)",837.8,813,824,828,835,840,843,846,848,850,851,127.3691938,36.6469349
"Korea","Iksan","Population density (inhabitants per km²)",590,600,600,600,597,595,590,587,585,579,567,126.9894962,36.0230799
"Korea","Jeju","Population density (inhabitants per km²)",444.5,410,414,421,428,438,449,459,469,476,481,126.5311884,33.4996213
"Korea","Jinju","Population density (inhabitants per km²)",474.5,465,466,468,469,471,477,481,483,482,483,128.1297905,35.205153
"Korea","Pohan","Population density (inhabitants per km²)",450.4,448,450,452,453,454,454,452,450,447,444,129.3052666,36.0929227
"Korea","Sebuk","Population density (inhabitants per km²)",936.4,860,881,900,916,928,939,955,975,997,1013,127.1618233,36.8927021
"Korea","Seo","Population density (inhabitants per km²)",2775.3,2751,2769,2790,2806,2814,2801,2784,2769,2747,2722,129.0148985,35.1030941
"Korea","Seongsan","Population density (inhabitants per km²)",961,972,974,975,972,966,961,956,950,945,939,128.6715497,35.1988494
"Korea","Seoul","Population density (inhabitants per km²)",3584.5,3573,3594,3613,3631,3646,3658,3544,3556,3507,3523,126.9917937,37.5518911
"Korea","Suncheon","Population density (inhabitants per km²)",300.7,296,296,297,299,301,303,303,304,304,304,127.3894958,34.9946567
"Korea","Ulsan","Population density (inhabitants per km²)",3014,2963,2971,2995,3023,3045,3055,3056,3041,3011,2980,129.2380554,35.5537228
"Korea","Wonju","Population density (inhabitants per km²)",373.8,354,360,365,368,370,374,380,385,389,393,127.9294889,37.3082307
"Latvia","Riga","Population density (inhabitants per km²)",177,175,172,170,169,168,168,167,168,167,167,24.1056221,56.9676941
"Lithuania","Kaunas","Population density (inhabitants per km²)",259,256,248,244,241,239,237,234,231,229,228,23.9035965,54.8985207
"Lithuania","Vilnius","Population density (inhabitants per km²)",168,167,165,164,164,164,164,164,164,164,165,25.2796514,54.6871555
"Luxembourg","Luxembourg","Population density (inhabitants per km²)",190,193,197,202,207,211,216,222,227,232,236,6.129583,49.815273
"Malta","Malta","Population density (inhabitants per km²)",1528,1540,1544,1554,1574,1602,1642,1684,1723,1783,1852,14.375416,35.937496
"Mexico","Acapulco de Juarez","Population density (inhabitants per km²)",446,455,454,453,453,452,452,451,450,450,449,-99.8822807,16.8639515
"Mexico","Aguascalientes","Population density (inhabitants per km²)",661,673,686,699,712,725,737,750,763,776,789,-102.2915677,21.8852562
"Mexico","Ahome","Population density (inhabitants per km²)",62,63,63,64,64,65,65,66,66,67,67,-108.9917304,25.7904061
"Mexico","Benito Juarez","Population density (inhabitants per km²)",304,312,325,338,351,364,377,390,404,417,430,-102.552784,23.634501
"Mexico","Cajeme","Population density (inhabitants per km²)",82,84,84,85,85,86,86,87,88,88,89,-109.940064,27.4934041
"Mexico","Campeche","Population density (inhabitants per km²)",78,79,81,82,83,84,85,86,87,88,89,-90.5349087,19.8301251
"Mexico","Carmen","Population density (inhabitants per km²)",25,26,26,26,27,27,27,28,28,28,29,-102.552784,23.634501
"Mexico","Celaya","Population density (inhabitants per km²)",501,512,518,523,529,535,540,546,552,558,563,-100.8112885,20.5279612
"Mexico","Chihuahua","Population density (inhabitants per km²)",96,97,99,100,102,103,104,106,107,109,110,-106.0697945,28.6333754
"Mexico","Chilpancingo de los Bravo","Population density (inhabitants per km²)",74,75,77,78,79,80,82,83,84,86,87,-99.5006322,17.5515346
"Mexico","Coatzacoalcos","Population density (inhabitants per km²)",421,428,429,431,432,433,434,435,436,437,438,-94.4589858,18.1344779
"Mexico","Colima","Population density (inhabitants per km²)",250,257,261,264,268,272,276,280,284,287,291,-103.7240868,19.2452342
"Mexico","Cordoba","Population density (inhabitants per km²)",725,735,740,745,750,755,760,765,770,775,780,-96.9237751,18.8838909
"Mexico","Cuautla","Population density (inhabitants per km²)",450,460,465,470,475,479,484,489,494,499,504,-98.9548261,18.8126047
"Mexico","Cuernavaca","Population density (inhabitants per km²)",760,773,782,791,799,808,817,825,834,843,851,-99.2215659,18.9242095
"Mexico","Culiacan","Population density (inhabitants per km²)",134,136,138,140,142,145,147,149,152,154,156,-107.3940117,24.8090649
"Mexico","Durango","Population density (inhabitants per km²)",61,62,64,65,66,67,68,69,70,72,73,-104.6608131,24.0248409
"Mexico","Ensenada","Population density (inhabitants per km²)",9,9,9,9,9,9,10,10,10,10,10,-116.2304616,31.8318543
"Mexico","Guadalajara","Population density (inhabitants per km²)",1307,1328,1350,1373,1395,1418,1440,1462,1485,1507,1530,-103.3473385,20.6751707
"Mexico","Guadalupe","Population density (inhabitants per km²)",100,102,104,106,108,110,112,114,116,118,120,-100.2155063,25.6748291
"Mexico","Hermosillo","Population density (inhabitants per km²)",45,46,47,48,49,50,51,51,52,53,54,-110.9559192,29.0729673
"Mexico","Irapuato","Population density (inhabitants per km²)",576,590,598,605,612,619,626,633,640,647,654,-101.3544964,20.6786652
"Mexico","Juarez","Population density (inhabitants per km²)",373,374,379,385,390,395,400,405,410,415,420,-106.4466831,31.7476729
"Mexico","La Paz","Population density (inhabitants per km²)",15,16,16,16,17,17,17,17,18,18,18,-110.3127531,24.1426408
"Mexico","Leon","Population density (inhabitants per km²)",1144,1170,1193,1216,1240,1263,1286,1309,1332,1356,1379,-101.6781837,21.1327508
"Mexico","Los Cabos","Population density (inhabitants per km²)",59,63,66,69,72,75,78,81,84,87,90,-109.9152149,22.8948129
"Mexico","Matamoros","Population density (inhabitants per km²)",104,105,106,107,109,110,111,112,113,114,115,-97.5027376,25.8690294
"Mexico","Mazatlan","Population density (inhabitants per km²)",170,172,175,177,180,182,185,187,190,192,195,-106.4111425,23.2494148
"Mexico","Merida","Population density (inhabitants per km²)",101,103,105,107,109,112,114,116,118,121,123,-89.5925857,20.9673702
"Mexico","Mexicali","Population density (inhabitants per km²)",59,60,60,61,62,63,63,64,65,65,66,-115.4522623,32.6245389
"Mexico","Mexico City","Population density (inhabitants per km²)",4102,4134,4165,4197,4229,4261,4293,4324,4356,4388,4420,-99.133208,19.4326077
"Mexico","Minatitlan","Population density (inhabitants per km²)",119,120,121,121,121,121,121,121,122,122,122,-94.5466067,17.9939225
"Mexico","Monclova","Population density (inhabitants per km²)",167,170,172,173,175,177,178,180,182,183,185,-101.4215236,26.9080378
"Mexico","Monterrey","Population density (inhabitants per km²)",560,572,586,601,616,631,646,661,676,691,705,-100.3161126,25.6866142
"Mexico","Morelia","Population density (inhabitants per km²)",412,419,427,435,443,451,459,467,475,483,491,-101.1949825,19.7059504
"Mexico","Nogales","Population density (inhabitants per km²)",122,125,128,130,133,135,138,140,143,145,148,-110.9381047,31.3011855
"Mexico","Nuevo Laredo","Population density (inhabitants per km²)",308,313,316,319,323,326,329,333,336,339,343,-99.549573,27.4779362
"Mexico","Oaxaca de Juarez","Population density (inhabitants per km²)",348,355,362,368,374,381,387,394,400,407,413,-96.7265889,17.0731842
"Mexico","Orizaba","Population density (inhabitants per km²)",539,548,552,557,561,566,570,575,579,584,589,-97.1036396,18.8504744
"Mexico","Pachuca de Soto","Population density (inhabitants per km²)",331,341,351,361,371,380,390,400,410,420,429,-98.7591311,20.1010608
"Mexico","Poza Rica de Hidalgo","Population density (inhabitants per km²)",191,194,194,194,195,195,195,195,196,196,196,-97.4629119,20.5270592
"Mexico","Puebla","Population density (inhabitants per km²)",1043,1059,1077,1095,1113,1131,1149,1167,1185,1204,1222,-98.2062727,19.0414398
"Mexico","Puerto Vallarta","Population density (inhabitants per km²)",363,374,379,384,389,395,400,405,411,416,421,-105.211358,20.6565177
"Mexico","Queretaro","Population density (inhabitants per km²)",216,222,229,237,245,253,261,268,276,284,292,-100.3898881,20.5887932
"Mexico","Reynosa","Population density (inhabitants per km²)",149,153,155,158,160,162,165,167,169,172,174,-98.2978951,26.0508406
"Mexico","Salamanca","Population density (inhabitants per km²)",336,343,345,347,348,350,352,353,355,357,358,-101.1957172,20.5739314
"Mexico","Saltillo","Population density (inhabitants per km²)",126,128,131,134,137,139,142,145,148,150,153,-100.973678,25.4383234
"Mexico","San Juan del Rio","Population density (inhabitants per km²)",303,312,319,326,334,341,348,355,363,370,377,-99.9856344,20.3951106
"Mexico","San Luis Potosi","Population density (inhabitants per km²)",158,160,163,166,169,172,175,178,181,184,186,-100.9733024,22.1520892
"Mexico","Tampico","Population density (inhabitants per km²)",354,359,362,365,369,372,375,378,382,385,388,-97.861099,22.2331041
"Mexico","Tapachula","Population density (inhabitants per km²)",317,325,328,332,335,339,342,345,349,352,355,-92.2634136,14.9055567
"Mexico","Tehuacan","Population density (inhabitants per km²)",335,340,346,353,360,367,374,381,387,394,401,-97.4003801,18.4665063
"Mexico","Tepic","Population density (inhabitants per km²)",195,200,203,205,208,211,214,217,220,223,226,-104.8945887,21.5041651
"Mexico","Tijuana","Population density (inhabitants per km²)",1235,1259,1288,1317,1346,1376,1405,1434,1464,1493,1522,-117.0382471,32.5149469
"Mexico","Tlaxcala","Population density (inhabitants per km²)",889,902,914,927,939,951,963,975,987,999,1011,-98.2374954,19.318154
"Mexico","Toluca","Population density (inhabitants per km²)",750,769,782,795,808,820,833,846,859,872,885,-99.6556653,19.2826098
"Mexico","Torreon","Population density (inhabitants per km²)",254,258,262,265,269,272,276,279,283,286,289,-103.4067861,25.5428443
"Mexico","Tulancingo de Bravo","Population density (inhabitants per km²)",344,354,358,363,367,371,375,380,384,388,392,-98.3690922,20.0904802
"Mexico","Tuxtla Gutierrez","Population density (inhabitants per km²)",1614,1643,1658,1674,1689,1704,1719,1734,1749,1764,1779,-93.1029939,16.7516009
"Mexico","Uruapan","Population density (inhabitants per km²)",303,310,314,318,322,326,330,334,338,342,346,-102.0430476,19.4064492
"Mexico","Veracruz","Population density (inhabitants per km²)",551,559,566,573,580,587,594,600,607,614,621,-96.1342241,19.173773
"Mexico","Victoria","Population density (inhabitants per km²)",215,219,221,223,225,227,228,230,232,234,236,-99.1411154,23.7369164
"Mexico","Villahermosa","Population density (inhabitants per km²)",263,271,273,276,279,282,284,287,290,292,295,-92.9475061,17.989456
"Mexico","Xalapa","Population density (inhabitants per km²)",522,533,539,545,551,557,563,569,575,581,587,-96.9101806,19.5437751
"Mexico","Zamora","Population density (inhabitants per km²)",540,548,554,559,564,569,574,579,585,590,595,-102.2834075,19.9901766
"Netherlands","'s-Gravenhage","Population density (inhabitants per km²)",2412,2435,2458,2487,2502,2519,2543,2563,2586,2617,2642,4.3006999,52.0704978
"Netherlands","'s-Hertogenbosch","Population density (inhabitants per km²)",727,730,733,735,737,738,740,742,746,751,755,5.3036748,51.6978162
"Netherlands","Alkmaar","Population density (inhabitants per km²)",588,591,593,595,595,596,612,614,619,622,626,4.7533754,52.6323813
"Netherlands","Amsterdam","Population density (inhabitants per km²)",800,807,814,820,825,830,836,843,851,858,865,4.9041389,52.3675734
"Netherlands","Apeldoorn","Population density (inhabitants per km²)",324,325,326,328,329,330,331,333,336,338,341,5.9699231,52.211157
"Netherlands","Arnhem","Population density (inhabitants per km²)",677,680,684,686,689,691,694,698,702,707,710,5.8987296,51.9851034
"Netherlands","Breda","Population density (inhabitants per km²)",490,492,493,495,497,498,500,501,503,506,508,4.768323,51.5719149
"Netherlands","Eindhoven","Population density (inhabitants per km²)",523,525,527,530,532,534,537,540,544,547,552,5.4622897,51.4231423
"Netherlands","Enschede","Population density (inhabitants per km²)",468,469,471,472,472,472,471,472,472,473,474,6.8936619,52.2215372
"Netherlands","Groningen","Population density (inhabitants per km²)",256,257,258,259,260,261,262,262,262,262,263,6.5665018,53.2193835
"Netherlands","Heerlen","Population density (inhabitants per km²)",1012,1010,1009,1009,1007,1004,1001,999,997,996,993,5.98035,50.8859774
"Netherlands","Leiden","Population density (inhabitants per km²)",1698,1707,1717,1725,1734,1742,1750,1763,1776,1791,1801,4.4970097,52.1601144
"Netherlands","Nijmegen","Population density (inhabitants per km²)",786,791,795,797,800,803,806,810,815,820,824,5.8372264,51.8125626
"Netherlands","Rotterdam","Population density (inhabitants per km²)",859,872,877,882,883,885,881,885,891,896,902,4.4777325,51.9244201
"Netherlands","Tilburg","Population density (inhabitants per km²)",705,708,711,714,716,719,722,726,729,735,740,5.056375,51.5852528
"Netherlands","Utrecht","Population density (inhabitants per km²)",877,884,889,895,901,907,914,921,929,937,945,5.1214201,52.0907374
"Netherlands","Zwolle","Population density (inhabitants per km²)",275,277,278,279,281,281,282,284,286,288,290,6.0830219,52.5167747
"New Zealand","Auckland","Population density (inhabitants per km²)",415,420,426,431,436,446,458,471,484,483,491,174.7644881,-36.8508827
"New Zealand","Christchurch","Population density (inhabitants per km²)",180,182,180,179,181,184,188,193,196,200,203,172.6305589,-43.5320214
"New Zealand","Wellington","Population density (inhabitants per km²)",222,224,226,226,227,229,232,236,240,246,249,174.7787463,-41.2923814
"Norway","Bergen","Population density (inhabitants per km²)",112,114,115,117,119,121,123,124,125,126,127,5.3220544,60.3912628
"Norway","Oslo","Population density (inhabitants per km²)",167,170,173,177,180,183,186,189,191,193,196,10.7522454,59.9138688
"Norway","Stavanger","Population density (inhabitants per km²)",109,111,113,115,118,120,122,123,124,124,125,5.7331073,58.9699756
"Norway","Trondheim","Population density (inhabitants per km²)",55,56,57,58,59,60,61,61,62,63,64,10.3950528,63.4305149
"Poland","Białystok","Population density (inhabitants per km²)",189,187,188,188,188,188,188,188,189,189,189,23.1688403,53.1324886
"Poland","Bielsko-Biała","Population density (inhabitants per km²)",483,483,485,486,487,488,488,488,489,489,490,19.0583845,49.8223768
"Poland","Bydgoszcz","Population density (inhabitants per km²)",234,236,236,236,236,236,236,237,237,237,237,18.0084378,53.1234804
"Poland","Częstochowa","Population density (inhabitants per km²)",212,210,210,209,209,208,207,206,205,204,203,19.1203094,50.8118195
"Poland","Gdańsk","Population density (inhabitants per km²)",421,423,426,427,429,431,433,435,437,439,443,18.6466384,54.3520252
"Poland","Katowice","Population density (inhabitants per km²)",664,654,652,650,648,645,642,639,637,635,633,19.0237815,50.2648919
"Poland","Kielce","Population density (inhabitants per km²)",177,177,177,176,176,175,174,173,173,172,172,20.6285677,50.8660773
"Poland","Kraków","Population density (inhabitants per km²)",361,361,363,364,365,367,368,369,371,373,376,19.9449799,50.0646501
"Poland","Łódź","Population density (inhabitants per km²)",570,562,560,556,553,549,546,543,541,538,535,19.4559833,51.7592485
"Poland","Lublin","Population density (inhabitants per km²)",210,209,209,209,209,208,208,208,208,208,208,22.5684463,51.2464536
"Poland","Nowy Sącz","Population density (inhabitants per km²)",193,194,195,195,196,197,197,198,198,199,199,20.7153326,49.6174535
"Poland","Olsztyn","Population density (inhabitants per km²)",126,126,126,126,126,126,126,125,125,125,125,20.4801193,53.778422
"Poland","Opole","Population density (inhabitants per km²)",150,140,139,139,138,138,137,137,136,136,136,17.9230651,50.6683223
"Poland","Poznań","Population density (inhabitants per km²)",309,310,311,313,313,314,315,316,317,319,320,16.9251681,52.406374
"Poland","Radom","Population density (inhabitants per km²)",423,424,423,421,420,419,417,416,415,414,412,21.1471333,51.4027236
"Poland","Rzeszów","Population density (inhabitants per km²)",214,213,214,215,216,216,217,218,219,220,221,21.9991196,50.0411867
"Poland","Szczecin","Population density (inhabitants per km²)",432,433,433,432,432,431,431,430,428,428,427,14.5528116,53.4285438
"Poland","Tarnów","Population density (inhabitants per km²)",239,234,235,235,235,235,235,235,235,235,235,20.9858407,50.0121011
"Poland","Toruń","Population density (inhabitants per km²)",199,200,200,200,200,200,201,201,201,201,201,18.5984437,53.0137902
"Poland","Wałbrzych","Population density (inhabitants per km²)",443,444,442,440,437,434,431,428,425,422,419,16.2843553,50.7840092
"Poland","Warszawa","Population density (inhabitants per km²)",347,347,351,353,355,357,359,362,364,367,370,21.0122287,52.2296756
"Poland","Wrocław","Population density (inhabitants per km²)",322,320,321,322,323,324,325,327,329,330,332,17.0385376,51.1078852
"Portugal","Braga","Population density (inhabitants per km²)",500,502,504,503,502,501,500,499,499,499,501,-8.426507,41.5454486
"Portugal","Coimbra","Population density (inhabitants per km²)",172,172,170,168,166,165,164,163,163,162,162,-8.4102573,40.2033145
"Portugal","Lisboa","Population density (inhabitants per km²)",682,686,687,685,683,683,684,686,689,692,696,-9.1393366,38.7222524
"Portugal","Porto","Population density (inhabitants per km²)",1370,1369,1366,1358,1350,1342,1336,1333,1335,1338,1343,-8.6291053,41.1579438
"Romania","Braşov","Population density (inhabitants per km²)",382,382,383,351,352,352,352,352,352,352,353,25.5887252,45.6426802
"Romania","Bucureşti","Population density (inhabitants per km²)",2036,2042,2045,2043,2043,2042,2041,2042,2037,2049,2059,26.1025384,44.4267674
"Romania","Cǎlǎraşi","Population density (inhabitants per km²)",314,313,312,306,304,302,299,296,293,289,285,24.96676,45.943161
"Romania","Cluj-Napoca","Population density (inhabitants per km²)",635,636,638,637,641,642,644,644,646,648,650,23.6236353,46.7712101
"Romania","Constanţa","Population density (inhabitants per km²)",805,807,808,763,764,763,762,760,757,754,752,28.6519359,44.1759147
"Romania","Craiova","Population density (inhabitants per km²)",876,872,867,816,810,805,800,794,787,781,775,23.7948808,44.3301785
"Romania","Iaşi","Population density (inhabitants per km²)",512,513,511,480,482,485,489,490,491,492,493,27.6014418,47.1584549
"Romania","Timişoara","Population density (inhabitants per km²)",1441,1446,1445,1461,1472,1477,1482,1484,1488,1495,1502,21.2086793,45.7488716
"Slovak Republic","Bratislava","Population density (inhabitants per km²)",290,292,293,296,299,302,305,309,313,317,322,17.1077477,48.1485965
"Slovak Republic","Košice","Population density (inhabitants per km²)",202,203,204,204,204,205,205,205,205,206,206,21.2610746,48.7163857
"Slovenia","Osrednjeslovenska","Population density (inhabitants per km²)",217,221,222,223,226,228,229,230,231,232,235,14.995463,46.151241
"Slovenia","Podravska","Population density (inhabitants per km²)",150,150,150,150,150,150,150,150,150,150,151,14.995463,46.151241
"Spain","A Coruña","Population density (inhabitants per km²)",549,551,554,555,556,554,553,554,556,559,562,-8.4115401,43.3623436
"Spain","Alicante/Alacant","Population density (inhabitants per km²)",1294,1299,1304,1309,1314,1303,1296,1303,1305,1314,1328,-0.4906855,38.3459963
"Spain","Barcelona","Population density (inhabitants per km²)",1865,1873,1879,1887,1883,1877,1877,1884,1896,1907,1926,2.168568,41.3873974
"Spain","Bilbao","Population density (inhabitants per km²)",686,687,689,690,688,686,683,683,683,684,686,-2.9349852,43.2630126
"Spain","Cádiz","Population density (inhabitants per km²)",1100,1099,1098,1095,1090,1084,1078,1071,1066,1060,1055,-6.2804565,36.5210142
"Spain","Castellón de la Plana/Castelló de la Plana","Population density (inhabitants per km²)",759,763,761,763,764,739,731,728,723,728,733,-0.0559939,40.0017505
"Spain","Córdoba","Population density (inhabitants per km²)",193,193,193,193,193,193,192,192,192,191,191,-4.7793835,37.8881751
"Spain","Elche/Elx","Population density (inhabitants per km²)",679,683,684,686,685,675,671,671,674,680,687,-0.7125608,38.2699329
"Spain","Gijón","Population density (inhabitants per km²)",578,577,578,579,574,574,571,569,567,565,565,-5.6611195,43.5322015
"Spain","Granada","Population density (inhabitants per km²)",331,339,342,344,345,346,345,346,346,347,349,-3.5984368,37.1774605
"Spain","Madrid","Population density (inhabitants per km²)",833,844,848,850,850,845,843,847,852,862,873,-3.7037902,40.4167754
"Spain","Málaga","Population density (inhabitants per km²)",544,549,555,558,562,558,560,561,563,566,570,-4.4217199,36.7211784
"Spain","Marbella","Population density (inhabitants per km²)",426,434,446,457,466,447,454,454,451,458,471,-4.8852579,36.5102831
"Spain","Murcia","Population density (inhabitants per km²)",507,513,515,515,513,515,516,517,520,524,531,-1.1306544,37.9922399
"Spain","Oviedo","Population density (inhabitants per km²)",337,339,339,340,339,337,334,332,332,331,330,-5.8485461,43.3622522
"Spain","Palma de Mallorca","Population density (inhabitants per km²)",331,334,336,337,333,331,332,333,336,340,345,2.6501603,39.5696005
"Spain","Palmas de Gran Canaria, Las","Population density (inhabitants per km²)",840,844,845,843,844,843,839,838,835,837,840,-15.4653897,28.1008837
"Spain","Pamplona/Iruña","Population density (inhabitants per km²)",214,216,219,221,222,222,223,223,225,227,230,-1.6457745,42.812526
"Spain","San Sebastián/Donostia","Population density (inhabitants per km²)",1004,1006,1011,1013,1015,1016,1018,1020,1022,1025,1030,-1.9812313,43.318334
"Spain","Santa Cruz de Tenerife","Population density (inhabitants per km²)",786,791,795,773,771,771,768,768,771,778,787,-16.2518467,28.4636296
"Spain","Santander","Population density (inhabitants per km²)",562,565,566,567,566,564,561,558,557,557,559,-3.8226402,43.4636346
"Spain","Sevilla","Population density (inhabitants per km²)",320,323,326,328,328,329,329,329,329,330,330,-5.9844589,37.3890924
"Spain","Tarragona","Population density (inhabitants per km²)",1030,1036,1036,1042,1041,1036,1034,1032,1035,1044,1060,1.2444909,41.1188827
"Spain","Valencia","Population density (inhabitants per km²)",990,994,993,995,993,988,988,991,991,997,1005,-0.3762881,39.4699075
"Spain","Valladolid","Population density (inhabitants per km²)",367,368,369,370,370,368,367,366,365,365,366,-4.7245321,41.652251
"Spain","Vigo","Population density (inhabitants per km²)",403,405,406,406,405,404,403,402,402,402,403,-8.7207268,42.2405989
"Spain","Vitoria/Gasteiz","Population density (inhabitants per km²)",163,165,166,168,168,168,169,170,171,173,174,-2.6732421,42.8531869
"Spain","Zaragoza","Population density (inhabitants per km²)",273,274,275,277,279,273,273,272,274,275,278,-0.8890853,41.6488226
"Sweden","Göteborg","Population density (inhabitants per km²)",216,218,221,223,225,228,231,234,237,241,245,11.97456,57.70887
"Sweden","Malmö","Population density (inhabitants per km²)",319,325,330,333,337,341,346,350,356,362,368,13.003822,55.604981
"Sweden","Stockholm","Population density (inhabitants per km²)",280,286,291,296,301,306,311,316,321,327,332,18.0685808,59.3293235
"Sweden","Uppsala","Population density (inhabitants per km²)",38,39,39,39,40,40,41,41,42,43,44,17.6389267,59.8585638
"Switzerland","Basel","Population density (inhabitants per km²)",745,747,750,754,759,766,773,779,785,788,792,7.5885761,47.5595986
"Switzerland","Bern","Population density (inhabitants per km²)",516,518,519,522,527,532,537,542,547,550,552,7.4474468,46.9479739
"Switzerland","Genève","Population density (inhabitants per km²)",991,1002,1013,1021,1027,1042,1060,1077,1088,1101,1110,6.1431577,46.2043907
"Switzerland","Lausanne","Population density (inhabitants per km²)",481,485,489,497,502,513,520,528,536,543,548,6.6322734,46.5196535
"Switzerland","Zürich","Population density (inhabitants per km²)",924,933,942,954,966,977,991,1005,1020,1031,1043,8.541694,47.3768866
"Türkiye","Adana","Population density (inhabitants per km²)",504,513,518,524,528,534,538,543,547,551,552,35.3308285,36.9914194
"Türkiye","Ankara","Population density (inhabitants per km²)",1588,1624,1666,1708,1734,1761,1798,1840,1867,1901,1922,32.8597419,39.9333635
"Türkiye","Antalya","Population density (inhabitants per km²)",506,523,539,557,570,588,605,623,634,644,661,30.7133233,36.8968908
"Türkiye","Balikesir","Population density (inhabitants per km²)",234,236,239,239,241,241,246,246,248,250,254,27.8903423,39.6532976
"Türkiye","Bursa","Population density (inhabitants per km²)",1415,1439,1470,1496,1516,1546,1572,1603,1637,1657,1689,29.0609636,40.1885281
"Türkiye","Denizli","Population density (inhabitants per km²)",684,690,694,702,708,718,729,740,749,759,766,29.0963328,37.7830159
"Türkiye","Diyarbakir","Population density (inhabitants per km²)",382,387,391,402,407,411,418,423,428,434,443,40.2109826,37.9249733
"Türkiye","Erzurum","Population density (inhabitants per km²)",233,233,231,235,234,231,230,229,229,229,231,41.2658236,39.9054993
"Türkiye","Gaziantep","Population density (inhabitants per km²)",624,641,659,679,697,714,732,748,765,777,786,37.37811,37.065953
"Türkiye","Hatay","Population density (inhabitants per km²)",535,549,561,558,562,569,576,581,589,597,610,36.1618938,36.2042794
"Türkiye","Istanbul","Population density (inhabitants per km²)",5923,6025,6183,6355,6463,6605,6706,6837,6906,7011,7029,28.9783589,41.0082376
"Türkiye","Izmir","Population density (inhabitants per km²)",2919,2975,3037,3049,3080,3123,3163,3206,3248,3291,3323,27.142826,38.423734
"Türkiye","Kayseri","Population density (inhabitants per km²)",491,500,512,520,528,537,548,556,563,571,576,35.482597,38.720489
"Türkiye","Kocaeli","Population density (inhabitants per km²)",587,600,615,631,644,661,679,701,721,742,751,29.9408089,40.7654408
"Türkiye","Konya","Population density (inhabitants per km²)",192,195,197,199,201,203,206,208,211,213,215,32.4931554,37.8746429
"Türkiye","Malatya","Population density (inhabitants per km²)",500,502,504,516,519,519,524,526,532,536,543,38.3335247,38.3553627
"Türkiye","Manisa","Population density (inhabitants per km²)",289,292,303,294,295,298,300,303,307,310,314,27.4295624,38.6140337
"Türkiye","Samsun","Population density (inhabitants per km²)",698,708,709,709,709,714,719,725,734,743,756,36.3360667,41.2797031
"Türkiye","Trabzon","Population density (inhabitants per km²)",1847,1887,1883,1867,1869,1870,1891,1895,1922,1939,1992,39.7167633,41.0026969
"Türkiye","Van","Population density (inhabitants per km²)",247,252,255,252,259,263,267,270,271,272,277,43.3729793,38.5012085
"United Kingdom","Aberdeen","Population density (inhabitants per km²)",72,73,73,74,75,75,76,76,76,75,75,-2.0937528,57.1498891
"United Kingdom","Belfast","Population density (inhabitants per km²)",414,416,418,419,420,422,425,427,428,431,434,-5.93012,54.597285
"United Kingdom","Blackburn with Darwen","Population density (inhabitants per km²)",358,359,360,360,360,360,361,363,364,365,368,-2.4682985,53.6957522
"United Kingdom","Blackpool","Population density (inhabitants per km²)",673,673,672,672,673,674,675,677,679,681,685,-3.0370485,53.8167423
"United Kingdom","Bournemouth","Population density (inhabitants per km²)",396,404,410,413,416,419,422,425,427,427,427,-1.8667169,50.7220101
"United Kingdom","Brighton and Hove","Population density (inhabitants per km²)",1013,1025,1035,1046,1055,1065,1075,1084,1088,1095,1098,-0.137047,50.8226288
"United Kingdom","Bristol","Population density (inhabitants per km²)",898,905,912,921,931,941,953,963,970,979,982,-2.58791,51.454513
"United Kingdom","Cambridge","Population density (inhabitants per km²)",217,221,224,225,226,228,231,232,233,234,235,0.1312729,52.1950788
"United Kingdom","Cardiff","Population density (inhabitants per km²)",746,750,754,759,763,767,770,774,778,782,786,-3.1680962,51.483707
"United Kingdom","Cheshire West and Chester","Population density (inhabitants per km²)",355,355,355,356,357,358,360,361,363,366,368,-2.7151117,53.2302974
"United Kingdom","Colchester","Population density (inhabitants per km²)",456,459,460,465,468,475,483,489,495,500,504,0.891874,51.895927
"United Kingdom","Coventry","Population density (inhabitants per km²)",820,827,836,844,853,863,877,891,903,915,926,-1.5089521,52.4128163
"United Kingdom","Derby","Population density (inhabitants per km²)",674,681,686,690,694,698,702,708,714,718,724,-1.4746186,52.9225301
"United Kingdom","Doncaster","Population density (inhabitants per km²)",529,531,533,534,535,536,538,542,544,547,549,-1.128462,53.52282
"United Kingdom","Dundee City","Population density (inhabitants per km²)",116,117,117,118,118,118,118,118,118,118,118,-2.970721,56.462018
"United Kingdom","Edinburgh","Population density (inhabitants per km²)",474,479,486,490,493,498,504,511,516,521,527,-3.188267,55.953252
"United Kingdom","Exeter","Population density (inhabitants per km²)",183,184,185,187,188,190,193,195,197,200,202,-3.5274889,50.7260367
"United Kingdom","Glasgow","Population density (inhabitants per km²)",526,528,531,531,532,533,536,540,543,545,548,-4.2583345,55.8616704
"United Kingdom","Guildford","Population density (inhabitants per km²)",412,416,421,424,428,432,437,441,443,444,447,-0.570409,51.23622
"United Kingdom","Ipswich","Population density (inhabitants per km²)",298,300,301,303,304,305,307,309,311,311,312,1.14822,52.056736
"United Kingdom","Kingston upon Hull","Population density (inhabitants per km²)",237,237,238,239,239,239,240,241,241,242,242,-0.3274198,53.7676236
"United Kingdom","Leeds","Population density (inhabitants per km²)",487,491,494,497,499,501,505,508,511,514,517,-1.5490774,53.8007554
"United Kingdom","Leicester","Population density (inhabitants per km²)",588,594,600,605,610,616,624,632,640,646,649,-1.1397592,52.6368778
"United Kingdom","Lincoln","Population density (inhabitants per km²)",135,137,138,139,140,142,143,144,146,147,148,-0.5426827,53.2294565
"United Kingdom","Liverpool","Population density (inhabitants per km²)",1498,1502,1507,1513,1515,1521,1529,1540,1546,1553,1560,-2.9915726,53.4083714
"United Kingdom","London","Population density (inhabitants per km²)",1593,1614,1639,1657,1677,1700,1722,1741,1751,1766,1777,-0.1275862,51.5072178
"United Kingdom","Manchester","Population density (inhabitants per km²)",1016,1023,1031,1037,1041,1047,1056,1065,1071,1077,1086,-2.2426305,53.4807593
"United Kingdom","Medway","Population density (inhabitants per km²)",1350,1363,1374,1391,1404,1417,1427,1436,1440,1441,1445,0.5417861,51.4047432
"United Kingdom","Middlesbrough","Population density (inhabitants per km²)",927,928,931,933,936,937,939,943,946,949,951,-1.234956,54.574227
"United Kingdom","Milton Keynes","Population density (inhabitants per km²)",779,796,810,819,831,844,853,863,867,871,874,-0.7594171,52.0406224
"United Kingdom","Newcastle upon Tyne","Population density (inhabitants per km²)",209,210,211,212,212,213,214,215,216,217,219,-1.61778,54.978252
"United Kingdom","Northampton","Population density (inhabitants per km²)",289,291,293,295,297,299,303,307,310,312,314,-0.8944421,52.237065
"United Kingdom","Norwich","Population density (inhabitants per km²)",249,252,254,257,259,261,264,267,270,272,275,1.2978802,52.6292567
"United Kingdom","Nottingham","Population density (inhabitants per km²)",948,956,964,971,979,988,996,1006,1015,1021,1027,-1.1549892,52.9540223
"United Kingdom","Oxford","Population density (inhabitants per km²)",265,267,270,272,274,276,278,280,282,284,286,-1.2577263,51.7520209
"United Kingdom","Plymouth","Population density (inhabitants per km²)",182,183,184,185,186,187,188,188,189,190,190,-4.1426565,50.3754565
"United Kingdom","Portsmouth","Population density (inhabitants per km²)",2604,2631,2653,2669,2678,2697,2718,2743,2758,2764,2762,-1.0879769,50.8197675
"United Kingdom","Preston","Population density (inhabitants per km²)",961,965,972,972,970,971,976,979,981,984,990,-2.70309,53.763201
"United Kingdom","Reading","Population density (inhabitants per km²)",1398,1409,1415,1430,1444,1458,1473,1486,1496,1511,1518,-0.9787475,51.4551201
"United Kingdom","Sheffield","Population density (inhabitants per km²)",892,899,907,913,918,923,930,937,942,949,953,-1.470085,53.381129
"United Kingdom","Southampton","Population density (inhabitants per km²)",425,429,433,436,439,442,446,451,453,455,457,-1.4049018,50.9105468
"United Kingdom","Stoke-on-Trent","Population density (inhabitants per km²)",530,532,535,536,538,540,542,546,549,550,551,-2.1827408,53.0033369
"United Kingdom","Sunderland","Population density (inhabitants per km²)",1994,1992,1987,1990,1993,1998,1998,2002,2001,2002,2005,-1.383801,54.906869
"United Kingdom","Swansea","Population density (inhabitants per km²)",456,458,460,462,462,464,466,470,471,473,475,-3.943646,51.62144
"United Kingdom","West Midlands urban area","Population density (inhabitants per km²)",1356,1366,1378,1386,1394,1403,1413,1426,1437,1444,1450,-1.829833,52.4750743
"United States","Ada","Population density (inhabitants per km²)",16,17,17,17,17,18,18,19,19,20,20,-96.6783449,34.774531
"United States","Alachua","Population density (inhabitants per km²)",47,47,48,48,48,48,49,50,50,51,51,-82.4944226,29.7938144
"United States","Albany","Population density (inhabitants per km²)",95,95,95,95,95,95,95,96,96,96,95,-73.7562317,42.6525793
"United States","Albuquerque","Population density (inhabitants per km²)",25,26,26,26,26,26,26,26,26,26,26,-106.650422,35.0843859
"United States","Allen","Population density (inhabitants per km²)",150,150,152,152,153,154,155,156,157,158,160,-96.6705503,33.1031744
"United States","Atlanta","Population density (inhabitants per km²)",333,337,341,347,351,357,363,370,375,380,385,-84.3876845,33.748752
"United States","Atlantic City","Population density (inhabitants per km²)",173,173,173,173,173,172,170,169,167,167,166,-74.4229266,39.3642834
"United States","Austin","Population density (inhabitants per km²)",130,134,138,142,146,151,155,160,164,168,173,-97.7430608,30.267153
"United States","Bell","Population density (inhabitants per km²)",53,55,56,57,57,57,58,59,60,61,62,-118.1870156,33.9775142
"United States","Benton (AR)","Population density (inhabitants per km²)",94,97,100,102,104,107,110,113,116,119,122,-92.585378,34.5693083
"United States","Benton (WA)","Population density (inhabitants per km²)",31,33,34,34,35,35,36,36,37,38,38,-119.5021582,46.3166362
"United States","Berks","Population density (inhabitants per km²)",183,184,184,184,184,185,185,185,186,187,187,-75.9927652,40.3451566
"United States","Boston","Population density (inhabitants per km²)",617,622,629,635,642,648,653,657,661,664,666,-71.0588801,42.3600825
"United States","Boulder","Population density (inhabitants per km²)",153,154,156,159,161,163,166,168,168,170,170,-105.2705456,40.0149856
"United States","Brazos","Population density (inhabitants per km²)",35,36,36,37,37,38,39,40,40,41,41,-96.3226072,30.6504141
"United States","Brevard","Population density (inhabitants per km²)",161,162,162,163,164,165,168,171,175,177,179,-80.7214417,28.263933
"United States","Brown","Population density (inhabitants per km²)",62,62,63,63,64,64,64,65,65,65,66,-87.9334803,44.4561674
"United States","Butte","Population density (inhabitants per km²)",32,32,32,32,32,32,32,33,33,33,32,-121.5370003,39.6253952
"United States","Caddo","Population density (inhabitants per km²)",46,47,47,47,47,47,47,47,46,46,46,-93.9737925,32.7565316
"United States","Cameron","Population density (inhabitants per km²)",158,161,163,165,165,166,166,167,167,167,167,-80.566467,39.8270237
"United States","Charleston","Population density (inhabitants per km²)",89,90,92,94,96,98,101,103,105,107,109,-79.9310512,32.7764749
"United States","Charlotte","Population density (inhabitants per km²)",253,256,261,266,271,277,283,289,296,301,306,-80.8431267,35.2270869
"United States","Chatham","Population density (inhabitants per km²)",93,94,96,98,98,100,102,103,104,105,106,-74.3837624,40.740934
"United States","Chicago","Population density (inhabitants per km²)",498,500,502,503,504,505,504,504,502,501,499,-87.6297982,41.8781136
"United States","Cincinnati","Population density (inhabitants per km²)",221,222,223,224,225,226,227,228,230,231,232,-84.5120196,39.1031182
"United States","Collier","Population density (inhabitants per km²)",60,60,61,62,63,65,67,68,70,71,72,-81.4278984,26.069985
"United States","Columbus","Population density (inhabitants per km²)",161,163,164,166,168,171,173,175,178,180,182,-82.9987942,39.9611755
"United States","Cumberland (ME)","Population density (inhabitants per km²)",114,114,114,115,115,116,117,118,118,119,120,-70.2585205,43.796573
"United States","Cumberland (NC)","Population density (inhabitants per km²)",133,137,139,140,141,141,141,142,141,143,144,-78.9638228,35.0092974
"United States","Cuyahoga","Population density (inhabitants per km²)",398,397,396,395,395,395,395,394,393,393,392,-81.7787021,41.7048247
"United States","Dallas","Population density (inhabitants per km²)",185,188,192,195,199,202,207,211,215,219,222,-96.7969879,32.7766642
"United States","Dane","Population density (inhabitants per km²)",103,104,105,106,107,109,110,112,113,114,115,-89.5497632,43.0186073
"United States","Dauphin","Population density (inhabitants per km²)",107,108,108,109,109,110,110,111,112,112,113,-76.7336521,40.2734277
"United States","Davidson","Population density (inhabitants per km²)",117,118,120,122,124,127,129,131,133,135,136,-80.8486846,35.4993031
"United States","Denver","Population density (inhabitants per km²)",115,117,119,122,124,126,129,131,133,135,136,-104.990251,39.7392358
"United States","Detroit (Greater)","Population density (inhabitants per km²)",430,428,428,429,429,430,429,430,431,431,431,-83.0457538,42.331427
"United States","Douglas (NE)","Population density (inhabitants per km²)",68,69,69,70,71,71,72,73,74,74,75,-96.3877734,40.5939437
"United States","Durham","Population density (inhabitants per km²)",343,351,358,366,374,382,389,399,404,411,418,-78.898619,35.9940329
"United States","East Baton Rouge","Population density (inhabitants per km²)",73,73,74,74,75,75,76,76,76,76,76,-91.09694,30.5693593
"United States","El Paso (CO)","Population density (inhabitants per km²)",90,93,95,96,97,98,100,102,104,106,107,-104.4723301,38.9108325
"United States","El Paso (TX)","Population density (inhabitants per km²)",54,56,57,58,57,58,58,58,58,58,58,-106.4850217,31.7618778
"United States","Erie (NY)","Population density (inhabitants per km²)",276,276,276,276,276,276,275,275,275,275,274,-78.7476208,42.6974933
"United States","Erie (PA)","Population density (inhabitants per km²)",133,134,134,134,134,133,133,132,131,130,128,-80.085059,42.1292241
"United States","Escambia","Population density (inhabitants per km²)",91,92,92,94,95,96,97,98,99,101,102,-87.3413599,30.6389408
"United States","Fayette","Population density (inhabitants per km²)",101,102,103,105,106,107,108,109,110,111,111,-79.6502105,39.9272324
"United States","Forsyth","Population density (inhabitants per km²)",124,125,126,127,127,128,129,130,131,132,133,-84.1435136,34.2358502
"United States","Fresno (Greater)","Population density (inhabitants per km²)",51,51,51,52,52,53,53,53,54,54,55,-119.7871247,36.7377981
"United States","Genesee","Population density (inhabitants per km²)",254,252,251,248,247,245,244,243,242,242,241,-83.6773928,43.0777289
"United States","Greene","Population density (inhabitants per km²)",36,36,37,37,37,37,38,38,38,38,39,-93.5003454,37.3311215
"United States","Greenville","Population density (inhabitants per km²)",216,219,222,226,229,233,238,242,246,250,254,-82.3940104,34.8526176
"United States","Guilford","Population density (inhabitants per km²)",284,287,290,293,297,300,303,307,310,312,315,-72.674364,41.288906
"United States","Hamilton (TN)","Population density (inhabitants per km²)",94,95,96,97,98,98,99,100,100,101,102,-85.1479364,35.1618966
"United States","Hampden","Population density (inhabitants per km²)",203,204,205,205,206,206,206,206,206,206,205,-68.8370436,44.7445421
"United States","Hartford","Population density (inhabitants per km²)",300,302,302,302,302,302,301,300,300,300,299,-88.3789862,43.3177794
"United States","Hidalgo","Population density (inhabitants per km²)",184,189,193,196,199,201,204,206,207,209,210,-98.2212979,26.4656319
"United States","Houston","Population density (inhabitants per km²)",201,205,209,213,218,224,230,234,238,240,243,-95.3698028,29.7604267
"United States","Indianapolis","Population density (inhabitants per km²)",178,180,182,184,186,188,189,191,193,195,197,-86.158068,39.768403
"United States","Ingham","Population density (inhabitants per km²)",104,104,105,105,106,106,106,107,108,108,108,-84.3542049,42.6468943
"United States","Jackson (MO)","Population density (inhabitants per km²)",100,101,101,102,103,104,105,106,107,108,108,-89.6662063,37.3822732
"United States","Jacksonville","Population density (inhabitants per km²)",106,107,108,109,110,112,114,116,119,121,123,-81.655651,30.3321838
"United States","Jefferson (AL)","Population density (inhabitants per km²)",101,101,101,102,102,102,103,103,103,103,104,-86.9824288,33.4914122
"United States","Jefferson (KY)","Population density (inhabitants per km²)",97,98,98,99,100,100,101,101,102,102,102,-85.5644033,38.1942356
"United States","Jefferson (TX)","Population density (inhabitants per km²)",39,40,40,40,40,40,40,40,40,40,40,-94.3451926,32.7573626
"United States","Kalamazoo","Population density (inhabitants per km²)",166,167,168,170,171,172,173,174,175,176,177,-85.5872286,42.2917069
"United States","Kent","Population density (inhabitants per km²)",161,161,163,165,167,168,170,171,173,174,175,-122.234771,47.3830671
"United States","Kern","Population density (inhabitants per km²)",39,40,40,40,41,41,41,42,42,42,42,-118.8596804,35.4937274
"United States","Knox","Population density (inhabitants per km²)",224,225,227,229,231,233,235,237,240,242,244,-83.8473015,36.0186934
"United States","Lackawanna","Population density (inhabitants per km²)",85,85,85,85,84,84,84,83,83,83,83,-78.8233664,42.8256141
"United States","Lafayette","Population density (inhabitants per km²)",48,48,48,49,49,50,50,51,51,51,51,-92.0198427,30.2240897
"United States","Lancaster (NE)","Population density (inhabitants per km²)",61,61,62,63,63,64,65,66,67,67,68,-96.663812,40.8471492
"United States","Lancaster (PA)","Population density (inhabitants per km²)",203,204,205,207,208,209,210,211,212,213,214,-76.3055144,40.0378755
"United States","Lane","Population density (inhabitants per km²)",29,29,30,30,30,30,30,31,31,32,32,-122.6618227,43.9610092
"United States","Larimer","Population density (inhabitants per km²)",43,44,45,46,46,47,49,50,50,51,52,-105.5943388,40.6955572
"United States","Las Vegas","Population density (inhabitants per km²)",21,21,21,21,22,22,22,23,23,24,24,-115.1391009,36.171563
"United States","Lee","Population density (inhabitants per km²)",263,267,271,277,284,291,301,311,319,325,332,-89.3226954,41.6789842
"United States","Lehigh","Population density (inhabitants per km²)",246,247,248,249,249,250,251,252,254,256,256,-97.3030858,38.3727872
"United States","Los Angeles (Greater)","Population density (inhabitants per km²)",202,204,205,207,208,210,211,212,213,213,213,-118.2848067,33.8726016
"United States","Lubbock","Population density (inhabitants per km²)",23,24,24,24,25,25,25,25,26,26,26,-101.8456417,33.5845617
"United States","Lucas","Population density (inhabitants per km²)",226,225,225,225,225,224,224,224,223,223,222,-83.3789389,41.6894388
"United States","Luzerne","Population density (inhabitants per km²)",136,137,137,137,136,136,135,135,135,135,135,-75.9927652,41.1404353
"United States","Madison","Population density (inhabitants per km²)",157,159,161,162,164,166,167,169,172,174,177,-89.4007501,43.0721661
"United States","Mahoning","Population density (inhabitants per km²)",164,163,162,161,160,159,158,157,156,155,155,-80.7214417,40.9871753
"United States","Marion (FL)","Population density (inhabitants per km²)",77,77,77,77,78,78,79,81,82,83,85,-82.12784,29.2787765
"United States","Marion (OR)","Population density (inhabitants per km²)",77,78,79,79,79,80,81,83,85,86,86,-122.942314,44.7490108
"United States","McLennan","Population density (inhabitants per km²)",36,37,37,37,38,38,38,38,39,39,40,-97.179026,31.5182285
"United States","Memphis","Population density (inhabitants per km²)",117,118,118,119,119,119,119,119,120,120,120,-90.0489801,35.1495343
"United States","Merced","Population density (inhabitants per km²)",49,50,50,51,51,51,52,52,53,53,54,-120.4829677,37.3021632
"United States","Miami (Greater)","Population density (inhabitants per km²)",352,357,363,368,373,377,382,387,391,393,394,-80.1883347,25.773897
"United States","Milwaukee","Population density (inhabitants per km²)",401,403,404,405,407,407,408,408,407,407,408,-87.9064736,43.0389025
"United States","Minneapolis","Population density (inhabitants per km²)",183,185,187,189,191,193,194,196,198,200,202,-93.2650108,44.977753
"United States","Minnehaha","Population density (inhabitants per km²)",23,24,24,24,25,25,26,26,27,27,27,-96.8350999,43.6631787
"United States","Mobile","Population density (inhabitants per km²)",125,125,125,125,125,125,125,126,125,125,125,-88.0398912,30.6953657
"United States","Monterey","Population density (inhabitants per km²)",48,48,49,49,50,50,50,50,50,50,50,-121.8946761,36.6002378
"United States","Montgomery (AL)","Population density (inhabitants per km²)",33,33,33,33,33,33,33,33,33,33,33,-86.3077368,32.3792233
"United States","Montgomery (OH)","Population density (inhabitants per km²)",305,305,306,306,306,305,305,306,306,306,307,-84.3541062,39.2281143
"United States","Muscogee","Population density (inhabitants per km²)",42,42,43,44,45,44,44,44,43,44,44,-84.8984775,32.4794133
"United States","Nashville","Population density (inhabitants per km²)",118,120,123,125,128,131,135,139,143,147,150,-86.7816016,36.1626638
"United States","New Haven","Population density (inhabitants per km²)",536,540,543,545,546,547,547,546,546,546,545,-72.9278835,41.308274
"United States","New Orleans","Population density (inhabitants per km²)",96,98,100,101,102,103,104,104,104,104,105,-90.0715323,29.9510658
"United States","New York (Greater)","Population density (inhabitants per km²)",814,820,825,829,832,835,836,837,837,835,833,-73.987863,40.7528622
"United States","Newport News","Population density (inhabitants per km²)",268,268,267,268,269,270,269,268,268,267,268,-76.4730122,37.0870821
"United States","Nueces","Population density (inhabitants per km²)",99,99,100,101,102,103,105,105,105,105,105,-97.4814163,27.7693351
"United States","Oklahoma","Population density (inhabitants per km²)",86,87,89,90,92,93,94,96,96,97,98,-97.092877,35.0077519
"United States","Onondaga","Population density (inhabitants per km²)",103,103,103,103,103,103,102,102,101,101,101,-76.1783739,43.026819
"United States","Orange","Population density (inhabitants per km²)",203,205,209,213,218,223,229,236,242,247,250,-117.855281,33.7879085
"United States","Outagamie","Population density (inhabitants per km²)",83,84,84,85,85,86,86,87,87,88,88,-88.4016041,44.4636545
"United States","Peoria","Population density (inhabitants per km²)",80,80,80,81,81,80,80,79,79,78,77,-89.5889864,40.6936488
"United States","Philadelphia (Greater)","Population density (inhabitants per km²)",487,490,492,493,495,496,497,497,498,500,500,-75.4580644,40.1238562
"United States","Phoenix","Population density (inhabitants per km²)",110,111,112,114,116,118,121,123,126,128,131,-112.0740373,33.4483771
"United States","Pima","Population density (inhabitants per km²)",41,41,41,42,42,42,42,43,43,43,44,-111.6660725,32.057499
"United States","Pittsburgh","Population density (inhabitants per km²)",343,344,345,346,346,346,345,345,343,342,342,-79.9958864,40.4406248
"United States","Polk","Population density (inhabitants per km²)",66,67,68,69,70,72,73,74,75,77,78,-81.6911559,27.8617347
"United States","Portland","Population density (inhabitants per km²)",133,135,137,139,140,142,144,147,149,150,151,-122.6783853,45.515232
"United States","Potter","Population density (inhabitants per km²)",15,16,16,16,16,16,16,16,16,16,16,-101.9804613,35.404373
"United States","Providence","Population density (inhabitants per km²)",376,376,376,377,377,377,377,378,377,379,378,-71.4128343,41.8239891
"United States","Pulaski","Population density (inhabitants per km²)",91,92,93,94,95,95,96,96,96,97,97,-80.7797935,37.0478982
"United States","Richland","Population density (inhabitants per km²)",84,86,86,87,88,89,90,91,92,93,94,-119.2751996,46.28042
"United States","Richmond (Greater)","Population density (inhabitants per km²)",95,96,97,98,99,100,101,102,103,104,105,-77.4368334,37.5450707
"United States","Roanoke","Population density (inhabitants per km²)",63,63,63,63,63,64,64,64,64,64,64,-79.9414266,37.2709704
"United States","Rochester (NY)","Population density (inhabitants per km²)",193,194,194,194,194,194,193,193,192,193,192,-77.6088465,43.1565779
"United States","Sacramento","Population density (inhabitants per km²)",155,156,158,159,161,162,164,167,169,170,172,-121.4943996,38.5815719
"United States","Salt Lake","Population density (inhabitants per km²)",45,46,46,47,48,48,49,50,51,51,52,-111.8910474,40.7607793
"United States","San Antonio","Population density (inhabitants per km²)",96,98,100,102,104,106,109,111,113,115,116,-98.4945922,29.4251905
"United States","San Diego","Population density (inhabitants per km²)",277,281,284,287,290,294,297,299,300,301,301,-117.1610838,32.715738
"United States","San Francisco (Greater)","Population density (inhabitants per km²)",448,453,458,465,471,478,484,488,490,492,491,-122.4194155,37.7749295
"United States","San Joaquin","Population density (inhabitants per km²)",183,186,188,189,190,192,195,198,201,203,206,-121.1710389,37.9175935
"United States","Santa Barbara","Population density (inhabitants per km²)",59,59,60,60,61,61,62,62,62,62,62,-119.6981901,34.4208305
"United States","Santa Cruz","Population density (inhabitants per km²)",224,227,229,230,232,234,236,237,237,236,235,-122.0307963,36.9741171
"United States","Sarasota","Population density (inhabitants per km²)",191,193,195,198,201,205,211,216,221,225,230,-82.5310117,27.336465
"United States","Scott","Population density (inhabitants per km²)",63,63,63,64,64,64,64,64,64,63,63,-93.5407909,44.6834072
"United States","Seattle","Population density (inhabitants per km²)",219,221,225,229,232,236,240,245,250,253,255,-122.3328481,47.6061389
"United States","Sebastian","Population density (inhabitants per km²)",24,24,24,24,24,24,24,24,24,24,24,-80.4706078,27.816415
"United States","Sedgwick","Population density (inhabitants per km²)",62,62,63,63,63,63,64,64,64,64,64,-97.422541,37.9166784
"United States","Sonoma","Population density (inhabitants per km²)",116,118,118,119,120,121,121,122,122,121,119,-122.4580356,38.291859
"United States","Spokane","Population density (inhabitants per km²)",34,35,35,35,35,35,36,36,37,37,38,-117.4235319,47.6579711
"United States","St. Joseph","Population density (inhabitants per km²)",223,223,223,223,224,224,225,226,226,227,227,-94.846681,39.7674578
"United States","St. Louis","Population density (inhabitants per km²)",184,185,185,185,185,186,186,186,186,186,186,-90.1994042,38.6270025
"United States","St. Lucie","Population density (inhabitants per km²)",172,174,175,177,178,181,186,191,196,200,205,-80.3421984,27.499208
"United States","Stanislaus","Population density (inhabitants per km²)",130,131,132,132,133,134,136,137,139,139,140,-120.9876321,37.5090711
"United States","Stark","Population density (inhabitants per km²)",250,249,249,249,249,250,249,248,247,247,246,-81.2518833,40.8684676
"United States","Summit","Population density (inhabitants per km²)",498,497,497,497,498,498,498,497,497,497,497,-74.3646122,40.7146376
"United States","Tallahassee","Population density (inhabitants per km²)",57,58,58,59,58,59,59,59,60,60,60,-84.2806235,30.4381828
"United States","Tampa-Hillsborough","Population density (inhabitants per km²)",430,437,445,454,462,472,484,495,506,516,523,-82.4587527,27.9516896
"United States","Tampa-Pinellas","Population density (inhabitants per km²)",483,484,485,488,492,498,505,515,524,530,536,-82.5436722,27.763383
"United States","Thurston","Population density (inhabitants per km²)",67,68,69,69,70,71,71,73,74,76,77,-96.7008704,42.17722
"United States","Tulare","Population density (inhabitants per km²)",35,35,36,36,36,36,36,37,37,37,37,-119.3473379,36.2077288
"United States","Tulsa","Population density (inhabitants per km²)",52,53,53,54,54,55,55,56,56,56,56,-95.992775,36.1539816
"United States","Tuscaloosa","Population density (inhabitants per km²)",26,26,26,26,26,27,27,27,27,27,27,-87.5691735,33.2098407
"United States","Utah","Population density (inhabitants per km²)",36,37,38,38,39,40,41,42,43,44,45,-111.0937311,39.3209801
"United States","Vanderburgh","Population density (inhabitants per km²)",66,66,67,67,67,67,67,67,67,67,67,-87.5791287,38.0806099
"United States","Ventura","Population density (inhabitants per km²)",169,171,172,173,174,175,175,176,176,176,175,-119.2945199,34.2804923
"United States","Virginia Beach","Population density (inhabitants per km²)",188,189,190,192,193,194,195,195,195,196,197,-75.9792194,36.8516437
"United States","Volusia-Daytona Beach","Population density (inhabitants per km²)",150,150,150,151,152,154,157,161,164,166,168,-81.0228331,29.2108147
"United States","Wake","Population density (inhabitants per km²)",245,251,257,263,268,275,282,289,296,302,308,-78.5660852,35.8031909
"United States","Washington (Greater)","Population density (inhabitants per km²)",349,355,360,365,369,373,376,378,381,383,385,-120.7401386,47.7510741
"United States","Washoe","Population density (inhabitants per km²)",21,21,21,21,21,21,22,22,22,23,23,-119.6035495,40.5608387
"United States","Washtenaw","Population density (inhabitants per km²)",183,185,187,188,190,193,194,196,197,198,197,-83.8473015,42.3076493
"United States","Webb","Population density (inhabitants per km²)",20,20,21,21,21,22,22,22,22,22,22,-99.0128926,27.8174487
"United States","Weber","Population density (inhabitants per km²)",133,136,137,138,139,141,142,145,147,149,152,-111.9522491,41.2602635
"United States","Weld","Population density (inhabitants per km²)",24,24,25,25,26,27,28,28,29,30,31,-104.4723301,40.5265766
"United States","Winnebago (IL)","Population density (inhabitants per km²)",168,168,167,167,166,165,164,164,163,162,162,-89.2412202,42.2661311
"United States","Worcester","Population density (inhabitants per km²)",194,196,196,197,198,199,200,200,202,202,203,-71.8022934,42.2625932
"United States","Yakima","Population density (inhabitants per km²)",21,22,22,22,22,22,22,22,22,22,23,-120.5058987,46.6020711
"United States","York","Population density (inhabitants per km²)",183,184,185,185,186,187,187,188,189,190,190,-76.727745,39.9625984
