"country","city","variable","2009","2010","2011","2012","2013","2014","2015","2016","2017","2018","2019","lon","lat"
"Australia","Canberra","Unemployment rate (unemployment 15-64 over labour force 15-64)",3.3,3.4,3.9,3.8,4.3,4.4,4.8,3.9,4.1,3.6,3.4,149.1310324,-35.2801846
"Australia","Geelong","Unemployment rate (unemployment 15-64 over labour force 15-64)",6.3,7.2,3.2,5.3,6.8,9.6,6,5.7,5.7,6.5,5.1,144.3598426,-38.1492994
"Australia","Gold Coast","Unemployment rate (unemployment 15-64 over labour force 15-64)",5.8,6.4,6.4,4.7,7.2,5.9,6,5.3,5.1,4.7,5.9,153.4,-28.016667
"Australia","Greater Adelaide","Unemployment rate (unemployment 15-64 over labour force 15-64)",6.1,5.5,5.6,5.7,6.5,6.8,7.6,7.3,6.7,6.1,6.4,138.6007456,-34.9284989
"Australia","Greater Brisbane","Unemployment rate (unemployment 15-64 over labour force 15-64)",4.9,5.1,4.9,5.6,5.8,6.4,5.9,5.7,6.1,6.4,6.2,153.0260341,-27.4704528
"Australia","Greater Melbourne","Unemployment rate (unemployment 15-64 over labour force 15-64)",5.7,5.2,5.1,5.6,6.2,6.8,6.3,6,6.3,5.1,5.1,144.9630576,-37.8136276
"Australia","Greater Perth","Unemployment rate (unemployment 15-64 over labour force 15-64)",5.1,4.6,4.4,4.1,4.4,5.3,6.1,6.4,6.4,6.5,6.3,115.8616783,-31.9513993
"Australia","Greater Sydney","Unemployment rate (unemployment 15-64 over labour force 15-64)",6.2,5.1,5.2,4.9,5.5,5.3,5.2,5,4.7,4.4,4.4,150.7214362,-33.8048488
"Australia","Newcastle","Unemployment rate (unemployment 15-64 over labour force 15-64)",5.3,4.5,3.6,4.4,5.2,6.5,6.7,5.4,5.7,6.1,4.6,151.7816802,-32.9282712
"Australia","Wollongong","Unemployment rate (unemployment 15-64 over labour force 15-64)",8.3,7.9,6.7,8,4.9,6.9,8.3,7.8,5,5.1,5.6,150.8931132,-34.4248336
"Belgium","Antwerpen","Unemployment rate (unemployment 15-64 over labour force 15-64)",6.8,7.3,6.3,6.7,7.3,7.3,7.5,7.1,7.2,7.3,7.3,4.4051485,51.2213404
"Belgium","Brugge","Unemployment rate (unemployment 15-64 over labour force 15-64)",3.9,4.1,3.3,3.5,4,4.2,4.2,3.8,3.8,4.2,4.1,3.2247552,51.2091807
"Belgium","Bruxelles/Brussel/Leuven","Unemployment rate (unemployment 15-64 over labour force 15-64)",8.8,9.7,9,9.4,10.4,10.3,9.9,9.5,9.1,8.7,8.3,4.356356,50.8489068
"Belgium","Charleroi","Unemployment rate (unemployment 15-64 over labour force 15-64)",10.8,11.2,9.1,9.4,10.8,11.3,11.1,9.9,9.8,9.7,9.7,4.44601,50.4096349
"Belgium","Gent","Unemployment rate (unemployment 15-64 over labour force 15-64)",5.4,5.6,4.6,4.8,5.3,5.4,5.5,5.2,5.2,5.1,5.1,3.7303351,51.0500182
"Belgium","Liège","Unemployment rate (unemployment 15-64 over labour force 15-64)",13.1,13.2,11.1,11.9,13.4,14.1,14.2,12.6,12.6,12.6,12.4,5.5697498,50.6329586
"Belgium","Mons","Unemployment rate (unemployment 15-64 over labour force 15-64)",14.8,15.1,12.7,13.2,14.7,15.3,15,13.2,13,12.8,12.6,3.9523135,50.4546634
"Belgium","Namur","Unemployment rate (unemployment 15-64 over labour force 15-64)",9.7,9.9,8,8.6,9.7,10.3,10.3,8.9,8.8,8.8,8.7,4.8650729,50.4649359
"Bulgaria","Burgas","Unemployment rate (unemployment 15-64 over labour force 15-64)",6.7,10.6,11.7,12.1,13.2,12.1,10.6,8,7.1,5.6,4.1,27.4626361,42.5047926
"Bulgaria","Plovdiv","Unemployment rate (unemployment 15-64 over labour force 15-64)",7.4,11.6,13,14,13.6,12.2,9.4,7.2,5.4,4.3,3.1,24.7452904,42.1354079
"Bulgaria","Sofia","Unemployment rate (unemployment 15-64 over labour force 15-64)",4.2,7,7.6,8.3,10,9.1,6.8,5.5,3.4,2.7,2.3,23.3218675,42.6977082
"Bulgaria","Varna","Unemployment rate (unemployment 15-64 over labour force 15-64)",10.6,14.7,15.5,18.5,17.1,12.9,10.5,9.9,9.6,7.6,6.1,27.9147333,43.2140504
"Canada","Calgary","Unemployment rate (unemployment 15-64 over labour force 15-64)",6.7,6.6,5.5,4.7,4.7,4.8,6.2,8.3,8,6.7,7.1,-114.0718831,51.0447331
"Canada","Edmonton","Unemployment rate (unemployment 15-64 over labour force 15-64)",6.7,6.6,5.5,4.7,4.7,4.8,6.2,8.3,8,6.7,7.1,-113.4937266,53.5460983
"Canada","Halifax","Unemployment rate (unemployment 15-64 over labour force 15-64)",9.4,9.8,9.2,9.2,9.1,9,8.8,8.5,8.7,7.8,7.4,-63.1005273,44.8857087
"Canada","Hamilton","Unemployment rate (unemployment 15-64 over labour force 15-64)",9.3,8.9,8,8,7.7,7.5,6.9,6.7,6.1,5.8,5.7,-79.8711024,43.2557206
"Canada","Kitchener","Unemployment rate (unemployment 15-64 over labour force 15-64)",9.3,8.9,8,8,7.7,7.5,6.9,6.7,6.1,5.8,5.7,-80.4925337,43.4516395
"Canada","London","Unemployment rate (unemployment 15-64 over labour force 15-64)",9.3,8.9,8,8,7.7,7.5,6.9,6.7,6.1,5.8,5.7,-81.2452768,42.9849233
"Canada","Montreal","Unemployment rate (unemployment 15-64 over labour force 15-64)",8.7,8.1,7.9,7.9,7.7,7.8,7.7,7.2,6.1,5.5,5.1,-73.5673919,45.5018869
"Canada","Ottawa","Unemployment rate (unemployment 15-64 over labour force 15-64)",9.1,8.7,8,8,7.7,7.5,7.1,6.8,6.1,5.7,5.6,-75.6971931,45.4215296
"Canada","Quebec","Unemployment rate (unemployment 15-64 over labour force 15-64)",8.7,8.1,7.9,7.9,7.7,7.8,7.7,7.2,6.1,5.5,5.1,-71.2074596,46.8130816
"Canada","Saskatoon","Unemployment rate (unemployment 15-64 over labour force 15-64)",5,5.3,5.1,4.9,4.2,4,5.2,6.5,6.5,6.4,5.7,-106.6701577,52.157902
"Canada","Sherbrooke","Unemployment rate (unemployment 15-64 over labour force 15-64)",8.7,8.1,7.9,7.9,7.7,7.8,7.7,7.2,6.1,5.5,5.1,-71.893674,45.4042669
"Canada","Toronto","Unemployment rate (unemployment 15-64 over labour force 15-64)",9.3,8.9,8,8,7.7,7.5,6.9,6.7,6.1,5.8,5.7,-79.3831843,43.653226
"Canada","Vancouver","Unemployment rate (unemployment 15-64 over labour force 15-64)",7.8,7.8,7.8,7,6.7,6.2,6.2,6.1,5.2,4.8,4.8,-123.1207375,49.2827291
"Canada","Victoria","Unemployment rate (unemployment 15-64 over labour force 15-64)",7.8,7.8,7.8,7,6.7,6.2,6.2,6.1,5.2,4.8,4.8,-123.3656444,48.4284207
"Canada","Windsor","Unemployment rate (unemployment 15-64 over labour force 15-64)",9.3,8.9,8,8,7.7,7.5,6.9,6.7,6.1,5.8,5.7,-83.0363633,42.3149367
"Canada","Winnipeg","Unemployment rate (unemployment 15-64 over labour force 15-64)",5.3,5.5,5.6,5.4,5.5,5.5,5.7,6.3,5.5,6.1,5.5,-97.1385145,49.8954221
"Chile","Antofagasta","Unemployment rate (unemployment 15-64 over labour force 15-64)",7.38,7.8,6.5,5.4,6,6.7,7.1,8.3,8.9,8.9,8.2,-70.3975022,-23.6509279
"Chile","Concepcion","Unemployment rate (unemployment 15-64 over labour force 15-64)",8.3,9.6,8.6,8.7,8.3,8.7,8.1,7.5,8,7.9,7.6,-73.0443904,-36.8201352
"Chile","Coquimbo-La Serena","Unemployment rate (unemployment 15-64 over labour force 15-64)",7.78,8.7,7.9,6.5,7.2,7.6,8.1,8.1,8.4,7.9,7.4,-71.2519374,-29.9026691
"Chile","Puerto Montt","Unemployment rate (unemployment 15-64 over labour force 15-64)",4.2,7.6,5.1,4.1,3.3,4.2,3.5,2.9,3.9,3.6,3.8,-72.9411364,-41.468917
"Chile","Rancagua","Unemployment rate (unemployment 15-64 over labour force 15-64)",6.54,7.1,6.2,6,5.1,5.5,6,6.7,6.9,7.9,8,-70.7406259,-34.1701324
"Chile","Santiago","Unemployment rate (unemployment 15-64 over labour force 15-64)",7.19,8.4,7.4,6.8,6,6.5,6.3,7.2,7.3,8.1,7.9,-70.6692655,-33.4488897
"Chile","Talca","Unemployment rate (unemployment 15-64 over labour force 15-64)",6.54,7.5,7.2,6.8,6.3,6.4,6.4,5.3,5.9,6.6,7,-71.6484804,-35.4232444
"Chile","Temuco","Unemployment rate (unemployment 15-64 over labour force 15-64)",7.84,9,8.6,7.8,7.3,6.7,7.6,7.5,8.8,7.7,7.4,-72.5904598,-38.7383905
"Chile","Valparaiso","Unemployment rate (unemployment 15-64 over labour force 15-64)",8.05,10.3,8.9,7.6,7.2,7.6,7.3,7.6,7.7,8,8.3,-71.6126885,-33.047238
"Colombia","Armenia","Unemployment rate (unemployment 15-64 over labour force 15-64)",19.2,18.4,18,15.6,15.9,13.7,13,14.1,13.8,14.4,15.4,-75.6756888,4.5350004
"Colombia","Barranquilla","Unemployment rate (unemployment 15-64 over labour force 15-64)",10.6,9.9,8.4,8.3,7.8,7.9,8.3,7.9,7.7,8,7.4,-74.8069813,11.0041072
"Colombia","Bogota D.C.","Unemployment rate (unemployment 15-64 over labour force 15-64)",11.5,10.7,9.7,9.6,9,8.7,8.7,9.3,10.4,10.6,11,-74.072092,4.7109886
"Colombia","Bucaramanga","Unemployment rate (unemployment 15-64 over labour force 15-64)",8.1,9.1,7.9,8.2,7.6,6.9,7,7.6,7.1,8.1,10.1,-73.1227416,7.119349
"Colombia","Buenaventura","Unemployment rate (unemployment 15-64 over labour force 15-64)",14.3,13.3,14.3,13.7,13.2,11.9,11.2,11.4,11.7,11.5,12.2,-77.0197212,3.8830471
"Colombia","Cali","Unemployment rate (unemployment 15-64 over labour force 15-64)",14.3,13.3,14.3,13.7,13.2,11.9,11.2,11.4,11.7,11.5,12.2,-76.5319854,3.4516467
"Colombia","Cartagena","Unemployment rate (unemployment 15-64 over labour force 15-64)",10.5,8.6,8.1,8,7.7,6.7,7.4,7.2,6.8,6.2,5.3,-75.4832311,10.3932277
"Colombia","Cucuta","Unemployment rate (unemployment 15-64 over labour force 15-64)",10.5,12,12.6,12.8,13.4,12.5,12.8,13,12.7,13.7,14.9,-72.4966896,7.8890971
"Colombia","Ibague","Unemployment rate (unemployment 15-64 over labour force 15-64)",14.7,15,17.4,11.8,10.1,10.2,10.9,10.9,10.5,13.2,15.9,-75.242438,4.444676
"Colombia","Manizales","Unemployment rate (unemployment 15-64 over labour force 15-64)",13.1,14.4,12.1,10.4,9.6,9.1,8.7,9.6,9.6,10.6,11.4,-75.5027698,5.0629743
"Colombia","Medellin","Unemployment rate (unemployment 15-64 over labour force 15-64)",13.1,12.3,10.7,10.9,10.1,9.7,9.4,9.9,10.5,11,11.5,-75.5658153,6.2476376
"Colombia","Monteria","Unemployment rate (unemployment 15-64 over labour force 15-64)",15.8,14.6,13.4,12.6,9.2,7.3,6.6,10.5,10,8.9,11.8,-75.8785348,8.750983
"Colombia","Neiva","Unemployment rate (unemployment 15-64 over labour force 15-64)",11.4,9.7,8.3,10.2,9.1,8.6,8,8.4,9.1,9.7,8.6,-75.2809001,2.9344837
"Colombia","Palmira","Unemployment rate (unemployment 15-64 over labour force 15-64)",14.3,13.3,14.3,13.7,13.2,11.9,11.2,11.4,11.7,11.5,12.2,-76.2971657,3.5379718
"Colombia","Pasto","Unemployment rate (unemployment 15-64 over labour force 15-64)",15.6,23.1,15.2,13.3,11.7,11.3,9.7,8.1,7.3,6.5,6.8,-77.285787,1.2058837
"Colombia","Pereira","Unemployment rate (unemployment 15-64 over labour force 15-64)",18.2,18.6,15.1,15.3,13.2,12.6,10.9,9.6,8.2,8.1,7.9,-75.690601,4.8087174
"Colombia","Popayan","Unemployment rate (unemployment 15-64 over labour force 15-64)",11.3,11.2,12,12,11.8,11.4,10.6,8.4,8.9,9.4,10.6,-76.6147395,2.4448143
"Colombia","Riohacha","Unemployment rate (unemployment 15-64 over labour force 15-64)",10.5,9.8,9,9.2,7.8,6.7,7.8,9.8,7.1,5,7.1,-72.9167838,11.5384151
"Colombia","Santa Marta","Unemployment rate (unemployment 15-64 over labour force 15-64)",10.2,8.6,10.2,8.1,8.3,7.4,7.7,8.8,7.8,7.3,9.7,-74.2110227,11.2403547
"Colombia","Sincelejo","Unemployment rate (unemployment 15-64 over labour force 15-64)",9.9,11.7,10.8,9.6,10,8.9,8.7,9.9,9.6,9.8,11.7,-75.3905567,9.3045773
"Colombia","Valledupar","Unemployment rate (unemployment 15-64 over labour force 15-64)",10.9,10.9,10.6,9.6,8.6,9.7,9.3,11.9,11.4,11.7,13.7,-73.2436335,10.4742449
"Colombia","Villavicencio","Unemployment rate (unemployment 15-64 over labour force 15-64)",11.1,10.2,9.7,10.7,10.6,10.6,10.5,11,12.5,12.2,13.9,-73.6285475,4.1491688
"Croatia","Split","Unemployment rate (unemployment 15-64 over labour force 15-64)",9.7,11.2,13.4,15,15.2,17.4,17,14.4,11.1,9.5,6.5,16.4435148,43.5147118
"Czechia","Brno","Unemployment rate (unemployment 15-64 over labour force 15-64)",6.9,7.8,7.6,8.2,6.9,6.2,5.1,4,3.4,2.7,2.2,16.6068371,49.1950602
"Czechia","Ostrava","Unemployment rate (unemployment 15-64 over labour force 15-64)",9.8,10.2,9.4,9.6,10,8.7,8.3,7,4.8,3.8,3.7,18.2625243,49.8209226
"Czechia","Plzeň","Unemployment rate (unemployment 15-64 over labour force 15-64)",6.4,6,5.2,4.9,5.3,5.2,3.9,3.5,2,1.6,1.3,13.3736371,49.7384314
"Czechia","Praha","Unemployment rate (unemployment 15-64 over labour force 15-64)",3.7,4.4,4.3,3.8,4.1,3.7,3.2,2.6,1.9,1.6,1.4,14.4378005,50.0755381
"Estonia","Tallinn","Unemployment rate (unemployment 15-64 over labour force 15-64)",12.9,16.4,11.7,8.9,8.2,6.9,5.2,6,4.9,4.3,3.5,24.7535746,59.4369608
"Finland","Helsinki/Helsingfors","Unemployment rate (unemployment 15-64 over labour force 15-64)",6.3,6.4,5.9,6.4,6.8,7.5,8.2,7.5,7.9,7.1,6.6,24.938379,60.1698557
"Finland","Oulu/Uleåborg","Unemployment rate (unemployment 15-64 over labour force 15-64)",10.6,10.2,9.5,9.7,10,10.2,10.7,10.5,9.9,8.4,8.1,25.4650773,65.0120888
"Finland","Tampere/Tammerfors","Unemployment rate (unemployment 15-64 over labour force 15-64)",9.1,9.1,8.5,8.4,8.7,8.9,10.1,9.6,9.5,7.6,6.6,23.7609535,61.4977524
"Finland","Turku/Åbo","Unemployment rate (unemployment 15-64 over labour force 15-64)",8.2,9.2,8.7,7.6,8.6,9.6,10.3,9.4,8.7,7.6,6.5,22.2666303,60.4518126
"France","Amiens","Unemployment rate (unemployment 15-64 over labour force 15-64)",12.2,12.2,11.2,12.3,13.8,13.2,12.9,12.8,12,11.2,10.6,2.295753,49.894067
"France","Angers","Unemployment rate (unemployment 15-64 over labour force 15-64)",7.6,8.5,8.5,8.4,8.9,8.6,9.2,9,7.1,7.8,7.6,-0.5518257,47.4711616
"France","Annecy","Unemployment rate (unemployment 15-64 over labour force 15-64)",8.2,7.9,7.9,8.5,8.5,8.6,9.1,8,7.5,7.5,6.9,6.129384,45.899247
"France","Annemasse-Geneva (French part)","Unemployment rate (unemployment 15-64 over labour force 15-64)",8.2,7.9,7.9,8.5,8.5,8.6,9.1,8,7.5,7.5,6.9,6.234158,46.193253
"France","Avignon","Unemployment rate (unemployment 15-64 over labour force 15-64)",9.5,9.9,9.9,10,10.9,10.3,11.1,10.7,10.3,9.5,8.9,4.805528,43.949317
"France","Bayonne","Unemployment rate (unemployment 15-64 over labour force 15-64)",8.1,7.9,8.6,8.8,9.1,9.8,9.7,9.5,9.4,9,8.7,-1.474841,43.492949
"France","Besançon","Unemployment rate (unemployment 15-64 over labour force 15-64)",8.3,8.7,8.5,8.9,10.2,10.4,9.1,9.1,9.2,8.3,8,6.0240539,47.237829
"France","Bordeaux","Unemployment rate (unemployment 15-64 over labour force 15-64)",8.1,7.9,8.6,8.8,9.1,9.8,9.7,9.5,9.4,9,8.7,-0.57918,44.837789
"France","Brest","Unemployment rate (unemployment 15-64 over labour force 15-64)",5.7,6.9,7.1,8.1,8,7.4,7.9,8.7,7.4,6.9,7,-4.4869723,48.3907119
"France","Caen","Unemployment rate (unemployment 15-64 over labour force 15-64)",8.7,9.1,9.1,10,10.5,10.4,9.6,10.3,10,8.8,9.3,-0.370679,49.182863
"France","Cannes-Antibes","Unemployment rate (unemployment 15-64 over labour force 15-64)",9.2,9.8,9.9,9.7,11,10.2,11.2,10.8,10.5,9.5,9,7.0923186,43.5745065
"France","Chambéry","Unemployment rate (unemployment 15-64 over labour force 15-64)",8.2,7.9,7.9,8.5,8.5,8.6,9.1,8,7.5,7.5,6.9,5.917781,45.564601
"France","Clermont-Ferrand","Unemployment rate (unemployment 15-64 over labour force 15-64)",8.2,7.9,7.9,8.5,8.5,8.6,9.1,8,7.5,7.5,6.9,3.087025,45.777222
"France","Dijon","Unemployment rate (unemployment 15-64 over labour force 15-64)",8.3,8.7,8.5,8.9,10.2,10.4,9.1,9.1,9.2,8.3,8,5.04148,47.322047
"France","Dunkerque","Unemployment rate (unemployment 15-64 over labour force 15-64)",12.2,12.2,11.2,12.3,13.8,13.2,12.9,12.8,12,11.2,10.6,2.3767763,51.0343684
"France","Fort-de-France","Unemployment rate (unemployment 15-64 over labour force 15-64)",22,21.2,21,21.2,23,19.6,18.2,18,18.1,17.6,15,2.213749,46.227638
"France","Grenoble","Unemployment rate (unemployment 15-64 over labour force 15-64)",8.2,7.9,7.9,8.5,8.5,8.6,9.1,8,7.5,7.5,6.9,5.724524,45.188529
"France","Hayange","Unemployment rate (unemployment 15-64 over labour force 15-64)",9.7,8.9,9.2,10.4,11,11.2,11.4,11.4,10.1,9.1,8.1,6.062166,49.329827
"France","Le Havre","Unemployment rate (unemployment 15-64 over labour force 15-64)",8.7,9.1,9.1,10,10.5,10.4,9.6,10.3,10,8.8,9.3,0.107929,49.49437
"France","Le Mans","Unemployment rate (unemployment 15-64 over labour force 15-64)",7.6,8.5,8.5,8.4,8.9,8.6,9.2,9,7.1,7.8,7.6,0.199556,48.00611
"France","Lens","Unemployment rate (unemployment 15-64 over labour force 15-64)",12.2,12.2,11.2,12.3,13.8,13.2,12.9,12.8,12,11.2,10.6,2.83183,50.42893
"France","Lille","Unemployment rate (unemployment 15-64 over labour force 15-64)",12.2,12.2,11.2,12.3,13.8,13.2,12.9,12.8,12,11.2,10.6,3.057256,50.62925
"France","Limoges","Unemployment rate (unemployment 15-64 over labour force 15-64)",8.1,7.9,8.6,8.8,9.1,9.8,9.7,9.5,9.4,9,8.7,1.261105,45.833619
"France","Lyon","Unemployment rate (unemployment 15-64 over labour force 15-64)",8.2,7.9,7.9,8.5,8.5,8.6,9.1,8,7.5,7.5,6.9,4.835659,45.764043
"France","Marseille","Unemployment rate (unemployment 15-64 over labour force 15-64)",9.2,9.8,9.9,9.7,11,10.2,11.2,10.8,10.5,9.5,9,5.36978,43.296482
"France","Metz","Unemployment rate (unemployment 15-64 over labour force 15-64)",9.7,8.9,9.2,10.4,11,11.2,11.4,11.4,10.1,9.1,8.1,6.1757156,49.1193089
"France","Montpellier","Unemployment rate (unemployment 15-64 over labour force 15-64)",10.8,10.5,9.9,11.4,10.6,10.7,10.7,10.2,9.7,9.6,8.5,3.876716,43.610769
"France","Mulhouse","Unemployment rate (unemployment 15-64 over labour force 15-64)",9.7,8.9,9.2,10.4,11,11.2,11.4,11.4,10.1,9.1,8.1,7.335888,47.750839
"France","Nancy","Unemployment rate (unemployment 15-64 over labour force 15-64)",9.7,8.9,9.2,10.4,11,11.2,11.4,11.4,10.1,9.1,8.1,6.184417,48.692054
"France","Nantes","Unemployment rate (unemployment 15-64 over labour force 15-64)",7.6,8.5,8.5,8.4,8.9,8.6,9.2,9,7.1,7.8,7.6,-1.553621,47.218371
"France","Nice","Unemployment rate (unemployment 15-64 over labour force 15-64)",9.2,9.8,9.9,9.7,11,10.2,11.2,10.8,10.5,9.5,9,7.2619532,43.7101728
"France","Nîmes","Unemployment rate (unemployment 15-64 over labour force 15-64)",10.8,10.5,9.9,11.4,10.6,10.7,10.7,10.2,9.7,9.6,8.5,4.360054,43.836699
"France","Orléans","Unemployment rate (unemployment 15-64 over labour force 15-64)",6.7,7,8.4,10.9,10.6,9.6,10.8,10,8.6,8.5,8.3,1.909251,47.902964
"France","Paris","Unemployment rate (unemployment 15-64 over labour force 15-64)",8.2,8.7,8.4,8.4,9.3,9.9,9.8,9.5,9,8.9,8.1,2.3522219,48.856614
"France","Pau","Unemployment rate (unemployment 15-64 over labour force 15-64)",8.1,7.9,8.6,8.8,9.1,9.8,9.7,9.5,9.4,9,8.7,-0.370797,43.2951
"France","Perpignan","Unemployment rate (unemployment 15-64 over labour force 15-64)",10.8,10.5,9.9,11.4,10.6,10.7,10.7,10.2,9.7,9.6,8.5,2.8948332,42.6886591
"France","Poitiers","Unemployment rate (unemployment 15-64 over labour force 15-64)",8.1,7.9,8.6,8.8,9.1,9.8,9.7,9.5,9.4,9,8.7,0.340375,46.580224
"France","Reims","Unemployment rate (unemployment 15-64 over labour force 15-64)",9.9,9.1,9.4,10.5,11.2,11.3,11.5,11.5,10.2,9.2,8.3,4.031696,49.258329
"France","Rennes","Unemployment rate (unemployment 15-64 over labour force 15-64)",5.7,6.9,7.1,8.1,8,7.4,7.9,8.7,7.4,6.9,7,-1.6777926,48.117266
"France","Rouen","Unemployment rate (unemployment 15-64 over labour force 15-64)",8.7,9.1,9.1,10,10.5,10.4,9.6,10.3,10,8.8,9.3,1.099971,49.443232
"France","Saint-Denis","Unemployment rate (unemployment 15-64 over labour force 15-64)",27.2,29,29.7,28.7,29.1,26.7,23.7,22.4,22.9,24.2,21.5,2.357443,48.936181
"France","Saint-Étienne","Unemployment rate (unemployment 15-64 over labour force 15-64)",8.2,7.9,7.9,8.5,8.5,8.6,9.1,8,7.5,7.5,6.9,4.3871779,45.439695
"France","Strasbourg","Unemployment rate (unemployment 15-64 over labour force 15-64)",9.7,8.9,9.2,10.4,11,11.2,11.4,11.4,10.1,9.1,8.1,7.7521113,48.5734053
"France","Toulon","Unemployment rate (unemployment 15-64 over labour force 15-64)",9.2,9.8,9.9,9.7,11,10.2,11.2,10.8,10.5,9.5,9,5.928,43.124228
"France","Toulouse","Unemployment rate (unemployment 15-64 over labour force 15-64)",10.8,10.5,9.9,11.4,10.6,10.7,10.7,10.2,9.7,9.6,8.5,1.444209,43.604652
"France","Tours","Unemployment rate (unemployment 15-64 over labour force 15-64)",6.7,7,8.4,10.9,10.6,9.6,10.8,10,8.6,8.5,8.3,0.68484,47.394144
"France","Valence","Unemployment rate (unemployment 15-64 over labour force 15-64)",8.2,7.9,7.9,8.5,8.5,8.6,9.1,8,7.5,7.5,6.9,4.89236,44.933393
"France","Valenciennes","Unemployment rate (unemployment 15-64 over labour force 15-64)",12.2,12.2,11.2,12.3,13.8,13.2,12.9,12.8,12,11.2,10.6,3.518332,50.357113
"Germany","Aachen","Unemployment rate (unemployment 15-64 over labour force 15-64)",10.1,9.9,9.6,9.1,9.4,9.5,9.1,8.6,8.3,7.6,7.4,6.0838868,50.7753455
"Germany","Augsburg","Unemployment rate (unemployment 15-64 over labour force 15-64)",6,5.8,5,4.6,4.6,4.9,4.8,4.5,4,3.8,3.8,10.89779,48.3705449
"Germany","Berlin","Unemployment rate (unemployment 15-64 over labour force 15-64)",12.5,12.5,12.3,11.5,11.1,10.6,10.1,9.1,8.3,7.5,7.2,13.404954,52.5200066
"Germany","Bielefeld","Unemployment rate (unemployment 15-64 over labour force 15-64)",9.6,9.6,8.5,8.4,8.8,8.8,8.6,8,7.6,6.8,6.8,8.5324708,52.0302285
"Germany","Bonn","Unemployment rate (unemployment 15-64 over labour force 15-64)",7.1,6.7,6.2,6.4,6.8,6.9,6.7,6.4,6.1,5.9,5.8,7.0982068,50.73743
"Germany","Braunschweig-Salzgitter","Unemployment rate (unemployment 15-64 over labour force 15-64)",9,8.9,8.1,7.6,7.5,7.4,7.1,7.1,6.9,6.3,5.8,10.5267696,52.2688736
"Germany","Bremen","Unemployment rate (unemployment 15-64 over labour force 15-64)",9.4,9.3,8.6,8.7,8.8,8.6,8.6,8.1,8,7.7,7.7,8.8016937,53.0792962
"Germany","Chemnitz","Unemployment rate (unemployment 15-64 over labour force 15-64)",12.9,12.1,10.8,10.2,9.9,9.3,8.6,7.8,7,6.5,5.9,12.9208547,50.8282222
"Germany","Darmstadt","Unemployment rate (unemployment 15-64 over labour force 15-64)",6.4,6.1,5.5,5.3,5.8,5.9,5.6,5.4,5.4,5,4.8,8.6511929,49.8728253
"Germany","Dresden","Unemployment rate (unemployment 15-64 over labour force 15-64)",11.7,11.3,10.3,9.6,9.3,8.7,8.2,7.4,6.7,6.2,5.6,13.7372621,51.0504088
"Germany","Düsseldorf","Unemployment rate (unemployment 15-64 over labour force 15-64)",8.5,8.5,8,8,8.2,8.1,7.9,7.3,7.1,6.6,6.4,6.7734556,51.2277411
"Germany","Erfurt","Unemployment rate (unemployment 15-64 over labour force 15-64)",12.2,10.7,10,9.6,9,8.6,8.4,7.6,6.8,6.2,5.9,11.0298799,50.9847679
"Germany","Erlangen","Unemployment rate (unemployment 15-64 over labour force 15-64)",3.9,3.8,3.2,3.2,3.4,3.3,3.3,3.2,3.1,2.9,2.8,11.0119611,49.5896744
"Germany","Frankfurt am Main","Unemployment rate (unemployment 15-64 over labour force 15-64)",6.8,6.7,6.2,6,6.2,6.3,5.9,5.6,5.3,4.9,4.7,8.6821267,50.1109221
"Germany","Freiburg im Breisgau","Unemployment rate (unemployment 15-64 over labour force 15-64)",5.2,5,4.6,4.4,4.5,4.6,4.5,4.3,4,3.7,3.7,7.8421043,47.9990077
"Germany","Göttingen","Unemployment rate (unemployment 15-64 over labour force 15-64)",9.3,8.8,7.9,7.1,7.4,7.1,6.7,6.4,6.2,6,5.6,9.9158035,51.5412804
"Germany","Halle an der Saale","Unemployment rate (unemployment 15-64 over labour force 15-64)",13.5,13.2,11.7,12,11.7,11.5,11.2,10.4,9.6,8.9,8.1,11.9662371,51.4953567
"Germany","Hamburg","Unemployment rate (unemployment 15-64 over labour force 15-64)",7.4,7.5,7.1,6.9,6.9,6.9,6.8,6.5,6.2,5.9,5.7,9.9871703,53.5488282
"Germany","Hannover","Unemployment rate (unemployment 15-64 over labour force 15-64)",9.5,9.5,8.9,8.5,8.6,8.7,8.2,7.8,7.5,7.1,6.8,9.7320104,52.3758916
"Germany","Heidelberg","Unemployment rate (unemployment 15-64 over labour force 15-64)",5.4,5.4,4.6,4.8,5,5,5,4.6,4.3,4,3.9,8.6724335,49.3987524
"Germany","Heilbronn","Unemployment rate (unemployment 15-64 over labour force 15-64)",6,5.8,4.7,4.5,4.9,4.6,4.4,4.3,4,3.8,3.6,9.210879,49.1426929
"Germany","Ingolstadt","Unemployment rate (unemployment 15-64 over labour force 15-64)",3.4,3.2,2.6,2.4,2.5,2.5,2.3,2.3,2.3,2.2,2.2,11.4226498,48.7667395
"Germany","Kaiserslautern","Unemployment rate (unemployment 15-64 over labour force 15-64)",8.3,8,7.6,7.6,8,7.8,7.4,7.4,7.1,6.8,6.7,7.7491265,49.4400657
"Germany","Karlsruhe","Unemployment rate (unemployment 15-64 over labour force 15-64)",5.4,5.4,4.6,4.5,4.6,4.6,4.5,4.3,4,3.7,3.6,8.4036527,49.0068901
"Germany","Kassel","Unemployment rate (unemployment 15-64 over labour force 15-64)",8.9,7.8,7.3,7.1,7.5,7.5,7,6.7,6.2,5.6,5.4,9.4797461,51.3127114
"Germany","Kiel","Unemployment rate (unemployment 15-64 over labour force 15-64)",8.8,8.9,8.8,8.3,8.6,8.5,8.4,8.1,7.6,6.9,6.3,10.1227652,54.3232927
"Germany","Koblenz","Unemployment rate (unemployment 15-64 over labour force 15-64)",6.8,6.4,5.6,5.8,5.7,5.7,5.6,5.1,4.7,4.5,4.2,7.5889959,50.3569429
"Germany","Köln","Unemployment rate (unemployment 15-64 over labour force 15-64)",9.5,9.3,8.7,8.7,9,9,8.9,8.3,8,7.4,7.3,6.9602786,50.937531
"Germany","Krefeld","Unemployment rate (unemployment 15-64 over labour force 15-64)",11,11.2,10.4,10.5,11.1,11.1,10.9,10.5,10.3,10,9.8,6.565208,51.3345409
"Germany","Leipzig","Unemployment rate (unemployment 15-64 over labour force 15-64)",14.2,13.4,12.5,11.5,10.8,9.9,9.4,8.6,7.7,6.9,6.3,12.3730747,51.3396955
"Germany","Lübeck","Unemployment rate (unemployment 15-64 over labour force 15-64)",10.6,10,9.8,9.3,9.5,9.2,9,8.3,7.8,7.2,6.7,10.6865593,53.8654673
"Germany","Magdeburg","Unemployment rate (unemployment 15-64 over labour force 15-64)",12.4,11.8,10.8,11.2,11.2,11,10.7,10,8.9,8.5,8,11.6276237,52.1205333
"Germany","Mainz","Unemployment rate (unemployment 15-64 over labour force 15-64)",6,5.8,5.5,5.4,5.6,5.7,5.6,5.6,5.3,4.9,4.8,8.2472526,49.9928617
"Germany","Mannheim-Ludwigshafen","Unemployment rate (unemployment 15-64 over labour force 15-64)",7,6.6,6,5.9,6,6,5.9,5.7,5.5,5.1,5.2,8.4447451,49.4774018
"Germany","Mönchengladbach","Unemployment rate (unemployment 15-64 over labour force 15-64)",11,10.9,10.4,10.5,10.7,10.7,10.2,9.7,9.5,9.1,8.4,6.4315392,51.1941686
"Germany","München","Unemployment rate (unemployment 15-64 over labour force 15-64)",4.8,4.6,4.1,3.9,4.1,4.1,4,3.7,3.5,3.2,3,11.5819806,48.1351253
"Germany","Münster","Unemployment rate (unemployment 15-64 over labour force 15-64)",6,5.7,5.3,5.3,5.6,5.5,5.4,5.2,5,4.6,4.4,7.6261347,51.9606649
"Germany","Nürnberg","Unemployment rate (unemployment 15-64 over labour force 15-64)",6.5,6.5,5.8,5.6,5.9,5.7,5.5,5.1,4.6,4.2,4.1,11.0766654,49.4521018
"Germany","Oldenburg (Oldenburg)","Unemployment rate (unemployment 15-64 over labour force 15-64)",8.1,7.9,7.3,7,7,7.2,6.8,6.5,6.3,5.7,5.4,8.2145521,53.1434501
"Germany","Osnabrück","Unemployment rate (unemployment 15-64 over labour force 15-64)",7.3,7.3,6.2,5.9,6,6.2,6,5.9,5.6,5.3,5,8.0471788,52.2799112
"Germany","Paderborn","Unemployment rate (unemployment 15-64 over labour force 15-64)",8,7.9,7.1,6.7,6.8,6.8,6.5,6.1,6,5.5,5.4,8.7575093,51.7189205
"Germany","Pforzheim","Unemployment rate (unemployment 15-64 over labour force 15-64)",7,6.5,5.4,5.2,5.4,5.3,5.1,5,4.5,4,4,8.6946286,48.8921862
"Germany","Regensburg","Unemployment rate (unemployment 15-64 over labour force 15-64)",5.1,4.3,3.4,3.3,3.6,3.4,3.2,2.9,2.6,2.5,2.7,12.1016236,49.0134297
"Germany","Rostock","Unemployment rate (unemployment 15-64 over labour force 15-64)",12.6,12.4,12.4,11.6,11.2,10.5,9.8,9.4,8.4,7.7,6.6,12.0991466,54.0924406
"Germany","Ruhrgebiet","Unemployment rate (unemployment 15-64 over labour force 15-64)",11.7,11.9,11.4,11.5,11.8,11.8,11.5,11.2,10.8,10,9.6,7.1980843,51.5450884
"Germany","Saarbrücken","Unemployment rate (unemployment 15-64 over labour force 15-64)",9.5,9.4,8.8,8.4,9.1,9.3,9.4,9,8.6,8.1,8.4,6.997547,49.2381697
"Germany","Siegen","Unemployment rate (unemployment 15-64 over labour force 15-64)",7.3,7.3,6.2,5.9,6.2,6.2,6,5.7,5.5,5,4.9,8.0209591,50.8838492
"Germany","Stuttgart","Unemployment rate (unemployment 15-64 over labour force 15-64)",5.2,5.3,4.5,4.3,4.5,4.3,4.2,4,3.8,3.4,3.4,9.1829321,48.7758459
"Germany","Trier","Unemployment rate (unemployment 15-64 over labour force 15-64)",5.1,4.8,4.5,4.4,4.7,4.6,4.4,4.5,4.1,3.7,3.8,6.6371433,49.749992
"Germany","Ulm","Unemployment rate (unemployment 15-64 over labour force 15-64)",4.6,4.4,3.5,3.6,3.9,3.6,3.4,3.3,2.9,2.6,2.7,9.9876076,48.4010822
"Germany","Wiesbaden","Unemployment rate (unemployment 15-64 over labour force 15-64)",7,7.1,6.4,6.3,6.5,6.6,6.6,6.6,6.6,6.2,5.7,8.2397608,50.0782184
"Germany","Wolfsburg","Unemployment rate (unemployment 15-64 over labour force 15-64)",7.8,7.7,6.9,6.4,6.3,6,5.8,5.8,5.8,5.5,5.1,10.7865461,52.4226503
"Germany","Wuppertal","Unemployment rate (unemployment 15-64 over labour force 15-64)",12.8,12.1,11.5,12.3,12.5,11.3,10.3,10.2,9.8,8.9,8.6,7.1507636,51.2562128
"Germany","Würzburg","Unemployment rate (unemployment 15-64 over labour force 15-64)",4.3,4.3,3.7,3.6,3.7,3.5,3.2,3.1,2.9,2.7,2.6,9.9533548,49.7913044
"Greece","Athina","Unemployment rate (unemployment 15-64 over labour force 15-64)",9.2,12.7,18.2,26.1,28.9,27.6,25.4,23.2,21.8,20.2,17.2,23.7275388,37.9838096
"Greece","Thessaloniki","Unemployment rate (unemployment 15-64 over labour force 15-64)",10.2,13.8,19.9,26.4,30.4,29,26.3,24.8,23.2,21,19.9,22.9444191,40.6400629
"Hungary","Budapest","Unemployment rate (unemployment 15-64 over labour force 15-64)",6.3,8.7,8.7,9.2,8.4,6,5.1,3.7,2.7,2.7,2.4,19.040235,47.497912
"Hungary","Debrecen","Unemployment rate (unemployment 15-64 over labour force 15-64)",11.5,13,13.3,13.1,14.7,12.7,11.1,8.5,6.4,5.5,4.5,21.6254485,47.5288879
"Hungary","Miskolc","Unemployment rate (unemployment 15-64 over labour force 15-64)",15.7,17.1,17.2,16.3,11.9,11.1,8.9,6.5,5.7,5.1,4.4,20.7784384,48.1034775
"Hungary","Nyíregyháza","Unemployment rate (unemployment 15-64 over labour force 15-64)",18.1,17.7,17.9,16.1,15.5,13.5,12.8,11.4,8.4,8.7,8.1,21.7244053,47.9495324
"Hungary","Pécs","Unemployment rate (unemployment 15-64 over labour force 15-64)",11,13.2,14.1,14,9.9,8.3,8.4,7.5,7.4,6.9,6.5,18.232266,46.0727345
"Hungary","Székesfehérvár","Unemployment rate (unemployment 15-64 over labour force 15-64)",8.9,9.4,9.5,10.3,9.2,6.3,3.7,2.7,2.8,2.5,2.5,18.4221358,47.1860262
"Ireland","Cork","Unemployment rate (unemployment 15-64 over labour force 15-64)",23.7,20.1,17.1,14.6,12.3,12,9.9,7.5,6.2,5.6,4.7,-8.4756035,51.8985143
"Ireland","Dublin","Unemployment rate (unemployment 15-64 over labour force 15-64)",22.6,19.3,16.5,14.1,13.2,11.1,9,7.9,6.6,5.5,4.7,-6.2603097,53.3498053
"Ireland","Galway","Unemployment rate (unemployment 15-64 over labour force 15-64)",27.4,23.4,20,17.1,14.3,12.6,11.8,9.9,7.2,6.5,5.6,-9.0512662,53.274001
"Ireland","Limerick","Unemployment rate (unemployment 15-64 over labour force 15-64)",35.1,29.2,24.3,20.2,16.9,14.1,12.4,9.8,8.1,6.1,5.5,-8.6267299,52.663839
"Italy","Bari","Unemployment rate (unemployment 15-64 over labour force 15-64)",11.2,11.2,12.3,16.2,19.8,20.6,19.3,20.5,15.7,13.3,12.1,16.8718715,41.1171432
"Italy","Bergamo","Unemployment rate (unemployment 15-64 over labour force 15-64)",3.7,3.7,4.1,6.9,7.5,7.5,5.8,5.4,4.3,4.9,3.6,9.6772698,45.6982642
"Italy","Bologna","Unemployment rate (unemployment 15-64 over labour force 15-64)",3.5,5,4.8,7,8.4,7.2,7.4,5.6,5.2,5.6,4.5,11.3426163,44.494887
"Italy","Brescia","Unemployment rate (unemployment 15-64 over labour force 15-64)",5.3,5.6,5.8,6.8,8.4,9.3,8.8,8.7,6.3,5.3,4.8,10.2118019,45.5415526
"Italy","Catania","Unemployment rate (unemployment 15-64 over labour force 15-64)",11.3,12,12.5,16.6,19.7,19.4,16.4,18.8,19.2,18.8,16.2,15.0830304,37.5078772
"Italy","Firenze","Unemployment rate (unemployment 15-64 over labour force 15-64)",5.1,4.8,6,7.1,8.2,8,8,8.2,6.9,6,6.2,11.2558136,43.7695604
"Italy","Genova","Unemployment rate (unemployment 15-64 over labour force 15-64)",5.7,6.6,7.1,7.9,9.4,10.3,8.4,10.1,9.2,9.7,10.2,8.946256,44.4056499
"Italy","Messina","Unemployment rate (unemployment 15-64 over labour force 15-64)",14,13.5,12.4,16.7,22,22.3,22.7,22.7,25.1,25.6,26.4,15.5542057,38.1937335
"Italy","Milano","Unemployment rate (unemployment 15-64 over labour force 15-64)",5.7,5.9,6,7.8,8.1,8.3,8.3,7.7,6.8,6.4,6.1,9.189982,45.4642035
"Italy","Modena","Unemployment rate (unemployment 15-64 over labour force 15-64)",5.1,6.8,5.2,6,7.6,8.1,7.6,6.7,7.2,6.1,6.5,10.9252269,44.647128
"Italy","Napoli","Unemployment rate (unemployment 15-64 over labour force 15-64)",14.2,15.2,17.1,21.7,24.7,24.1,21.7,22.5,23.5,23.6,23,14.26812,40.8517983
"Italy","Padova","Unemployment rate (unemployment 15-64 over labour force 15-64)",4.4,5.9,5.2,6.4,8.7,8,9.4,8,8.5,6,5.9,11.8767611,45.4064349
"Italy","Palermo","Unemployment rate (unemployment 15-64 over labour force 15-64)",17.8,18.5,15.8,19.4,20.7,23.4,24.2,25.5,21.7,20,19.5,13.3614868,38.11569
"Italy","Parma","Unemployment rate (unemployment 15-64 over labour force 15-64)",3.9,4,3.8,6.4,7.4,7.4,7.1,6.7,5.4,4.9,5,10.3279036,44.801485
"Italy","Perugia","Unemployment rate (unemployment 15-64 over labour force 15-64)",6.5,6.9,7.2,9.9,10.5,11.2,10.4,9.7,10.3,9.3,8.1,12.3908279,43.1107168
"Italy","Prato","Unemployment rate (unemployment 15-64 over labour force 15-64)",7.3,7.1,6.5,7.7,6.4,9.9,9.3,8.9,6.8,6.9,6.6,11.102228,43.8777049
"Italy","Reggio nell'Emilia","Unemployment rate (unemployment 15-64 over labour force 15-64)",5,5.5,4.9,4.8,6,6.8,5.5,4.8,5,4.3,4.1,10.6296859,44.6989932
"Italy","Rimini","Unemployment rate (unemployment 15-64 over labour force 15-64)",7.6,7.8,7.9,9.4,11.7,11.2,9.8,9.4,10.3,8.4,8.2,12.5695158,44.0678288
"Italy","Roma","Unemployment rate (unemployment 15-64 over labour force 15-64)",8.1,9.1,8.6,10.1,11.3,11.7,11,10.1,9.8,10.1,9.3,12.4963655,41.9027835
"Italy","Salerno","Unemployment rate (unemployment 15-64 over labour force 15-64)",14.1,14.1,13.3,17.7,17.5,17.7,16.9,17.8,16.1,15.4,17.5,14.7680961,40.6824408
"Italy","Taranto","Unemployment rate (unemployment 15-64 over labour force 15-64)",9.6,12.5,11.3,13.2,15.7,18.4,18.9,16.6,17.1,17,15.5,17.2470303,40.4643606
"Italy","Torino","Unemployment rate (unemployment 15-64 over labour force 15-64)",8.4,9.4,9.2,9.9,11.4,13.1,12.1,10.6,9.5,9.4,8.5,7.686864,45.0703393
"Italy","Venezia","Unemployment rate (unemployment 15-64 over labour force 15-64)",5.5,6.5,5.4,8.6,8.9,9.6,7.3,7.1,5,6.7,6.1,12.3155151,45.4408474
"Italy","Verona","Unemployment rate (unemployment 15-64 over labour force 15-64)",4.6,4.6,4.5,4.4,5.9,5,6.3,5.5,6.2,7.1,4.7,10.9916215,45.4383842
"Japan","Akita","Unemployment rate (unemployment 15-64 over labour force 15-64)",6.4,6,5.4,4.8,4.3,3.9,3.7,3.5,3,2.8,2.8,140.1034795,39.7199668
"Japan","Aomori","Unemployment rate (unemployment 15-64 over labour force 15-64)",6.4,6,5.4,4.8,4.3,3.9,3.7,3.5,3,2.8,2.8,140.7473524,40.8222197
"Japan","Asahikawa","Unemployment rate (unemployment 15-64 over labour force 15-64)",5.5,5.5,5.2,5.3,4.9,4.2,3.8,3.8,3.4,3,2.5,142.3650083,43.7708833
"Japan","Ashikaga","Unemployment rate (unemployment 15-64 over labour force 15-64)",5,4.8,4.7,3.9,4.1,3.5,3.3,3.1,2.7,2.5,2.5,139.4497602,36.3401874
"Japan","Fuji","Unemployment rate (unemployment 15-64 over labour force 15-64)",4.7,4.4,3.8,3.6,3.5,2.8,2.7,2.7,2.4,1.8,1.9,-80.992685,34.970328
"Japan","Fujieda","Unemployment rate (unemployment 15-64 over labour force 15-64)",4.7,4.4,3.8,3.6,3.5,2.8,2.7,2.7,2.4,1.8,1.9,138.2575386,34.8673376
"Japan","Fukui","Unemployment rate (unemployment 15-64 over labour force 15-64)",4.6,4.2,3.9,3.9,3.6,3.2,2.9,2.9,2.9,2.1,2.1,136.219623,36.0641386
"Japan","Fukuoka","Unemployment rate (unemployment 15-64 over labour force 15-64)",5.7,6,5.6,5.2,4.9,4.6,4.2,3.6,3.4,2.8,2.8,130.4016888,33.5901838
"Japan","Fukushima","Unemployment rate (unemployment 15-64 over labour force 15-64)",6.4,6,5.4,4.8,4.3,3.9,3.7,3.5,3,2.8,2.8,140.4747856,37.7607991
"Japan","Hachinohe","Unemployment rate (unemployment 15-64 over labour force 15-64)",6.4,6,5.4,4.8,4.3,3.9,3.7,3.5,3,2.8,2.8,141.4882743,40.5122055
"Japan","Hakodate","Unemployment rate (unemployment 15-64 over labour force 15-64)",5.5,5.5,5.2,5.3,4.9,4.2,3.8,3.8,3.4,3,2.5,140.7290599,41.7686961
"Japan","Hamamatsu","Unemployment rate (unemployment 15-64 over labour force 15-64)",4.7,4.4,3.8,3.6,3.5,2.8,2.7,2.7,2.4,1.8,1.9,137.7274159,34.7102752
"Japan","Himeji","Unemployment rate (unemployment 15-64 over labour force 15-64)",5.9,6.2,5.3,5.2,4.6,4.3,4,3.7,3.1,3,2.6,134.6855509,34.8154176
"Japan","Hiroshima","Unemployment rate (unemployment 15-64 over labour force 15-64)",4.9,4.6,3.8,3.9,3.9,3.7,3.4,3.1,2.8,2.4,2.4,132.4553055,34.3852894
"Japan","Hitachi","Unemployment rate (unemployment 15-64 over labour force 15-64)",5,4.8,4.7,3.9,4.1,3.5,3.3,3.1,2.7,2.5,2.5,140.6504712,36.5991273
"Japan","Isesaki","Unemployment rate (unemployment 15-64 over labour force 15-64)",5,4.8,4.7,3.9,4.1,3.5,3.3,3.1,2.7,2.5,2.5,139.1965435,36.3118354
"Japan","Kagoshima","Unemployment rate (unemployment 15-64 over labour force 15-64)",5.7,6,5.6,5.2,4.9,4.6,4.2,3.6,3.4,2.8,2.8,130.5571392,31.5968539
"Japan","Kanazawa","Unemployment rate (unemployment 15-64 over labour force 15-64)",4.6,4.2,3.9,3.9,3.6,3.2,2.9,2.9,2.9,2.1,2.1,136.6520376,36.5597341
"Japan","Kitakyushu","Unemployment rate (unemployment 15-64 over labour force 15-64)",5.7,6,5.6,5.2,4.9,4.6,4.2,3.6,3.4,2.8,2.8,130.8751773,33.8834976
"Japan","Kochi","Unemployment rate (unemployment 15-64 over labour force 15-64)",5.6,5.1,4.5,4.7,4.1,3.6,3.7,3.7,3.7,2.5,2.5,133.5312383,33.5588821
"Japan","Kofu","Unemployment rate (unemployment 15-64 over labour force 15-64)",5,4.8,4.7,3.9,4.1,3.5,3.3,3.1,2.7,2.5,2.5,138.5683001,35.662133
"Japan","Koriyama","Unemployment rate (unemployment 15-64 over labour force 15-64)",6.4,6,5.4,4.8,4.3,3.9,3.7,3.5,3,2.8,2.8,140.3596822,37.4004776
"Japan","Kumamoto","Unemployment rate (unemployment 15-64 over labour force 15-64)",5.7,6,5.6,5.2,4.9,4.6,4.2,3.6,3.4,2.8,2.8,130.7079369,32.8032164
"Japan","Kurume","Unemployment rate (unemployment 15-64 over labour force 15-64)",5.7,6,5.6,5.2,4.9,4.6,4.2,3.6,3.4,2.8,2.8,130.5083557,33.3192356
"Japan","Kusatsu","Unemployment rate (unemployment 15-64 over labour force 15-64)",5.9,6.2,5.3,5.2,4.6,4.3,4,3.7,3.1,3,2.6,138.5960945,36.6207181
"Japan","Matsumoto","Unemployment rate (unemployment 15-64 over labour force 15-64)",5,4.8,4.7,3.9,4.1,3.5,3.3,3.1,2.7,2.5,2.5,137.9719897,36.2380434
"Japan","Matsuyama","Unemployment rate (unemployment 15-64 over labour force 15-64)",5.6,5.1,4.5,4.7,4.1,3.6,3.7,3.7,3.7,2.5,2.5,132.7653057,33.8393515
"Japan","Mito","Unemployment rate (unemployment 15-64 over labour force 15-64)",5,4.8,4.7,3.9,4.1,3.5,3.3,3.1,2.7,2.5,2.5,140.4713723,36.3658764
"Japan","Miyazaki","Unemployment rate (unemployment 15-64 over labour force 15-64)",5.7,6,5.6,5.2,4.9,4.6,4.2,3.6,3.4,2.8,2.8,131.4202196,31.9077285
"Japan","Morioka","Unemployment rate (unemployment 15-64 over labour force 15-64)",6.4,6,5.4,4.8,4.3,3.9,3.7,3.5,3,2.8,2.8,141.1543303,39.7019558
"Japan","Nagano","Unemployment rate (unemployment 15-64 over labour force 15-64)",5,4.8,4.7,3.9,4.1,3.5,3.3,3.1,2.7,2.5,2.5,138.1950371,36.6485258
"Japan","Nagasaki","Unemployment rate (unemployment 15-64 over labour force 15-64)",5.7,6,5.6,5.2,4.9,4.6,4.2,3.6,3.4,2.8,2.8,129.8778888,32.7503334
"Japan","Nagoya","Unemployment rate (unemployment 15-64 over labour force 15-64)",4.7,4.4,3.8,3.6,3.5,2.8,2.7,2.7,2.4,1.8,1.9,136.9065571,35.1814506
"Japan","Naha","Unemployment rate (unemployment 15-64 over labour force 15-64)",5.7,6,5.6,5.2,4.9,4.6,4.2,3.6,3.4,2.8,2.8,127.6790208,26.2125758
"Japan","Niigata","Unemployment rate (unemployment 15-64 over labour force 15-64)",4.6,4.2,3.9,3.9,3.6,3.2,2.9,2.9,2.9,2.1,2.1,139.0363708,37.9161244
"Japan","Numazu","Unemployment rate (unemployment 15-64 over labour force 15-64)",4.7,4.4,3.8,3.6,3.5,2.8,2.7,2.7,2.4,1.8,1.9,138.8635399,35.0956068
"Japan","Obihiro","Unemployment rate (unemployment 15-64 over labour force 15-64)",5.5,5.5,5.2,5.3,4.9,4.2,3.8,3.8,3.4,3,2.5,143.197199,42.9233354
"Japan","Oita","Unemployment rate (unemployment 15-64 over labour force 15-64)",5.7,6,5.6,5.2,4.9,4.6,4.2,3.6,3.4,2.8,2.8,131.6095148,33.2396084
"Japan","Okayama","Unemployment rate (unemployment 15-64 over labour force 15-64)",4.9,4.6,3.8,3.9,3.9,3.7,3.4,3.1,2.8,2.4,2.4,133.919795,34.6555312
"Japan","Osaka","Unemployment rate (unemployment 15-64 over labour force 15-64)",5.9,6.2,5.3,5.2,4.6,4.3,4,3.7,3.1,3,2.6,135.5022535,34.6937249
"Japan","Sapporo","Unemployment rate (unemployment 15-64 over labour force 15-64)",5.5,5.5,5.2,5.3,4.9,4.2,3.8,3.8,3.4,3,2.5,141.3544506,43.0617713
"Japan","Sendai","Unemployment rate (unemployment 15-64 over labour force 15-64)",6.4,6,5.4,4.8,4.3,3.9,3.7,3.5,3,2.8,2.8,140.869418,38.268195
"Japan","Shimonoseki","Unemployment rate (unemployment 15-64 over labour force 15-64)",4.9,4.6,3.8,3.9,3.9,3.7,3.4,3.1,2.8,2.4,2.4,130.9411759,33.9575297
"Japan","Shizuoka","Unemployment rate (unemployment 15-64 over labour force 15-64)",4.7,4.4,3.8,3.6,3.5,2.8,2.7,2.7,2.4,1.8,1.9,138.3826773,34.9755668
"Japan","Takamatsu","Unemployment rate (unemployment 15-64 over labour force 15-64)",5.6,5.1,4.5,4.7,4.1,3.6,3.7,3.7,3.7,2.5,2.5,134.0465405,34.342542
"Japan","Takasaki","Unemployment rate (unemployment 15-64 over labour force 15-64)",5,4.8,4.7,3.9,4.1,3.5,3.3,3.1,2.7,2.5,2.5,139.0033576,36.3220692
"Japan","Tokushima","Unemployment rate (unemployment 15-64 over labour force 15-64)",5.6,5.1,4.5,4.7,4.1,3.6,3.7,3.7,3.7,2.5,2.5,134.5549537,34.0703652
"Japan","Tokyo","Unemployment rate (unemployment 15-64 over labour force 15-64)",5,5.3,4.8,4.6,4.2,3.6,3.5,3.3,3,2.6,2.4,139.650027,35.6764225
"Japan","Toyama","Unemployment rate (unemployment 15-64 over labour force 15-64)",4.6,4.2,3.9,3.9,3.6,3.2,2.9,2.9,2.9,2.1,2.1,137.2137211,36.6958223
"Japan","Toyohashi","Unemployment rate (unemployment 15-64 over labour force 15-64)",4.7,4.4,3.8,3.6,3.5,2.8,2.7,2.7,2.4,1.8,1.9,137.3916837,34.7688528
"Japan","Utsunomiya","Unemployment rate (unemployment 15-64 over labour force 15-64)",5,4.8,4.7,3.9,4.1,3.5,3.3,3.1,2.7,2.5,2.5,139.8826209,36.5550745
"Japan","Wakayama","Unemployment rate (unemployment 15-64 over labour force 15-64)",5.9,6.2,5.3,5.2,4.6,4.3,4,3.7,3.1,3,2.6,135.1707405,34.2303678
"Japan","Yamagata","Unemployment rate (unemployment 15-64 over labour force 15-64)",6.4,6,5.4,4.8,4.3,3.9,3.7,3.5,3,2.8,2.8,140.3396175,38.2554153
"Japan","Yokkaichi","Unemployment rate (unemployment 15-64 over labour force 15-64)",4.7,4.4,3.8,3.6,3.5,2.8,2.7,2.7,2.4,1.8,1.9,136.6244121,34.9651064
"Korea","Chuncheon","Unemployment rate (unemployment 15-64 over labour force 15-64)",2.3,2.6,2.2,2.5,2.3,3.2,3.3,2.9,2.6,2.7,3.2,127.7398952,37.8897796
"Korea","Dalseong","Unemployment rate (unemployment 15-64 over labour force 15-64)",4.5,4,3.8,3.4,3.3,3.9,3.5,4.2,4,4.4,3.8,128.5089708,35.7322821
"Korea","Deokjin","Unemployment rate (unemployment 15-64 over labour force 15-64)",2.2,2.4,2.6,2.2,2.1,2.7,1.8,2.2,2.8,3,3,127.1120644,35.8581862
"Korea","Gimhae","Unemployment rate (unemployment 15-64 over labour force 15-64)",4.2,3.5,3.3,3.5,3.5,3.6,3.8,3.9,4.2,4,3.7,128.8452281,35.2721355
"Korea","Gumi","Unemployment rate (unemployment 15-64 over labour force 15-64)",3.1,3,2.8,2.7,3.4,3.1,3.2,3.5,3,4.5,4,128.3555532,36.207309
"Korea","Gunsan","Unemployment rate (unemployment 15-64 over labour force 15-64)",2.2,2.4,2.6,2.2,2.1,2.7,1.8,2.2,2.8,3,3,126.7366293,35.9676772
"Korea","Gwangsan","Unemployment rate (unemployment 15-64 over labour force 15-64)",3.7,3.5,3.1,2.6,2.9,2.8,2.9,3.2,2.9,3.8,3.6,126.7528769,35.1650242
"Korea","Gyeongsan","Unemployment rate (unemployment 15-64 over labour force 15-64)",3.1,3,2.8,2.7,3.4,3.1,3.2,3.5,3,4.5,4,128.8090748,35.8337972
"Korea","Heungdeok","Unemployment rate (unemployment 15-64 over labour force 15-64)",2.2,2.3,2.5,2.1,2.2,3.1,2.7,2.7,2.3,2.5,3.1,127.3691938,36.6469349
"Korea","Iksan","Unemployment rate (unemployment 15-64 over labour force 15-64)",2.2,2.4,2.6,2.2,2.1,2.7,1.8,2.2,2.8,3,3,126.9894962,36.0230799
"Korea","Jeju","Unemployment rate (unemployment 15-64 over labour force 15-64)",1.7,1.9,1.8,1.7,2,2.2,1.9,2.3,2,1.9,2.1,126.5311884,33.4996213
"Korea","Jinju","Unemployment rate (unemployment 15-64 over labour force 15-64)",3.3,3,2.3,2,2.2,2.6,2.8,3.6,3.1,3.2,4,128.1297905,35.205153
"Korea","Pohan","Unemployment rate (unemployment 15-64 over labour force 15-64)",3.1,3,2.8,2.7,3.4,3.1,3.2,3.5,3,4.5,4,129.3052666,36.0929227
"Korea","Sebuk","Unemployment rate (unemployment 15-64 over labour force 15-64)",3.4,3.1,2.6,2.5,2.9,3.5,3.7,3.4,3.1,3.3,3.1,127.1618233,36.8927021
"Korea","Seo","Unemployment rate (unemployment 15-64 over labour force 15-64)",3.7,3.6,3.6,3.7,3,3.3,3.4,3.3,3.4,4.3,4.2,129.0148985,35.1030941
"Korea","Seongsan","Unemployment rate (unemployment 15-64 over labour force 15-64)",3.3,3,2.3,2,2.2,2.6,2.8,3.6,3.1,3.2,4,128.6715497,35.1988494
"Korea","Seoul","Unemployment rate (unemployment 15-64 over labour force 15-64)",4.3,4.4,4.1,3.8,3.6,4,4.2,4.2,4.2,4.3,4.1,126.9917937,37.5518911
"Korea","Suncheon","Unemployment rate (unemployment 15-64 over labour force 15-64)",2,2.3,2.2,1.8,2.4,3.2,2.8,3.3,3.5,3.1,2.8,127.3894958,34.9946567
"Korea","Ulsan","Unemployment rate (unemployment 15-64 over labour force 15-64)",4.1,3.4,2.6,2.6,2.2,2.8,2.9,3.8,3.5,4.5,4.1,129.2380554,35.5537228
"Korea","Wonju","Unemployment rate (unemployment 15-64 over labour force 15-64)",2.3,2.6,2.2,2.5,2.3,3.2,3.3,2.9,2.6,2.7,3.2,127.9294889,37.3082307
"Latvia","Riga","Unemployment rate (unemployment 15-64 over labour force 15-64)",18,21,16.4,13.7,10.2,8.2,7,7.4,7.3,6.1,5.3,24.1056221,56.9676941
"Lithuania","Kaunas","Unemployment rate (unemployment 15-64 over labour force 15-64)",13.5,17.2,13.6,11.1,10.2,9.1,7.3,6.7,5.8,5.9,6.4,23.9035965,54.8985207
"Lithuania","Vilnius","Unemployment rate (unemployment 15-64 over labour force 15-64)",14.4,16.4,14.5,13.1,9.9,8.6,7.7,5.7,4.9,4.7,4.5,25.2796514,54.6871555
"Luxembourg","Luxembourg","Unemployment rate (unemployment 15-64 over labour force 15-64)",5.2,4.4,5,5.2,5.9,5.9,6.7,6.3,5.6,5.6,5.6,6.129583,49.815273
"Malta","Malta","Unemployment rate (unemployment 15-64 over labour force 15-64)",7,7,6.4,6.3,6.2,5.8,5.5,4.8,4.1,3.7,3.7,14.375416,35.937496
"Mexico","Acapulco de Juarez","Unemployment rate (unemployment 15-64 over labour force 15-64)",1.7,1.7,2.6,1.7,2.3,1.6,2.1,2.1,1.5,0.9,1.5,-99.8822807,16.8639515
"Mexico","Aguascalientes","Unemployment rate (unemployment 15-64 over labour force 15-64)",7.4,6.5,6.3,6.1,4.9,6,4.5,4.2,4.2,3.4,3.8,-102.2915677,21.8852562
"Mexico","Ahome","Unemployment rate (unemployment 15-64 over labour force 15-64)",4.1,4.7,5.2,4.3,5.2,5.9,4.5,3.9,3.9,3.9,3.1,-108.9917304,25.7904061
"Mexico","Benito Juarez","Unemployment rate (unemployment 15-64 over labour force 15-64)",5.5,5.4,4.5,4,4.9,4.7,3.8,3.1,2.7,2.6,2.8,-102.552784,23.634501
"Mexico","Cajeme","Unemployment rate (unemployment 15-64 over labour force 15-64)",5.6,6.5,5.9,5.3,5.6,5.1,5.2,5.2,3.9,3.7,4.2,-109.940064,27.4934041
"Mexico","Campeche","Unemployment rate (unemployment 15-64 over labour force 15-64)",3,3.5,3.9,2.4,2.8,3.4,2.7,3.6,4.2,3.5,3.6,-90.5349087,19.8301251
"Mexico","Carmen","Unemployment rate (unemployment 15-64 over labour force 15-64)",3,3.5,3.9,2.4,2.8,3.4,2.7,3.6,4.2,3.5,3.6,-102.552784,23.634501
"Mexico","Celaya","Unemployment rate (unemployment 15-64 over labour force 15-64)",5.1,6.1,6.3,6,6,4.9,4.6,3.9,4.3,3.5,3.9,-100.8112885,20.5279612
"Mexico","Chihuahua","Unemployment rate (unemployment 15-64 over labour force 15-64)",7.2,7,6.6,6.8,6,3.2,4.1,3.9,2.8,3.4,3.5,-106.0697945,28.6333754
"Mexico","Chilpancingo de los Bravo","Unemployment rate (unemployment 15-64 over labour force 15-64)",1.7,1.7,2.6,1.7,2.3,1.6,2.1,2.1,1.5,0.9,1.5,-99.5006322,17.5515346
"Mexico","Coatzacoalcos","Unemployment rate (unemployment 15-64 over labour force 15-64)",2.8,2.7,3.8,3.6,3.8,3.9,3.8,3.9,3.7,3.5,2.7,-94.4589858,18.1344779
"Mexico","Colima","Unemployment rate (unemployment 15-64 over labour force 15-64)",4.3,4.2,4.7,4,5,4.3,4.5,4.4,4,2.7,3.6,-103.7240868,19.2452342
"Mexico","Cordoba","Unemployment rate (unemployment 15-64 over labour force 15-64)",2.8,2.7,3.8,3.6,3.8,3.9,3.8,3.9,3.7,3.5,2.7,-96.9237751,18.8838909
"Mexico","Cuautla","Unemployment rate (unemployment 15-64 over labour force 15-64)",3.3,4.7,3.6,3.2,4,4.3,3.2,2.8,1.7,2.1,2.4,-98.9548261,18.8126047
"Mexico","Cuernavaca","Unemployment rate (unemployment 15-64 over labour force 15-64)",3.3,4.7,3.6,3.2,4,4.3,3.2,2.8,1.7,2.1,2.4,-99.2215659,18.9242095
"Mexico","Culiacan","Unemployment rate (unemployment 15-64 over labour force 15-64)",4.1,4.7,5.2,4.3,5.2,5.9,4.5,3.9,3.9,3.9,3.1,-107.3940117,24.8090649
"Mexico","Durango","Unemployment rate (unemployment 15-64 over labour force 15-64)",5.8,4.8,7.3,6.8,5.3,6.3,4.9,5.3,4.1,3.9,4.4,-104.6608131,24.0248409
"Mexico","Ensenada","Unemployment rate (unemployment 15-64 over labour force 15-64)",5.9,5.4,5.7,6.4,5.4,5.7,4.8,2.5,2.9,2.7,2.5,-116.2304616,31.8318543
"Mexico","Guadalajara","Unemployment rate (unemployment 15-64 over labour force 15-64)",4.5,5,5.9,4.7,4.7,5.2,5.4,3.8,2.7,3.1,3.1,-103.3473385,20.6751707
"Mexico","Guadalupe","Unemployment rate (unemployment 15-64 over labour force 15-64)",4.2,5.2,6.8,5.2,5.1,5,2.9,3.2,3.1,2.7,3.4,-100.2155063,25.6748291
"Mexico","Hermosillo","Unemployment rate (unemployment 15-64 over labour force 15-64)",5.6,6.5,5.9,5.3,5.6,5.1,5.2,5.2,3.9,3.7,4.2,-110.9559192,29.0729673
"Mexico","Irapuato","Unemployment rate (unemployment 15-64 over labour force 15-64)",5.1,6.1,6.3,6,6,4.9,4.6,3.9,4.3,3.5,3.9,-101.3544964,20.6786652
"Mexico","Juarez","Unemployment rate (unemployment 15-64 over labour force 15-64)",7.2,7,6.6,6.8,6,3.2,4.1,3.9,2.8,3.4,3.5,-106.4466831,31.7476729
"Mexico","La Paz","Unemployment rate (unemployment 15-64 over labour force 15-64)",5,5.1,5.7,5,5.7,5.1,4.4,4.3,4,3.5,4.5,-110.3127531,24.1426408
"Mexico","Leon","Unemployment rate (unemployment 15-64 over labour force 15-64)",5.1,6.1,6.3,6,6,4.9,4.6,3.9,4.3,3.5,3.9,-101.6781837,21.1327508
"Mexico","Los Cabos","Unemployment rate (unemployment 15-64 over labour force 15-64)",5,5.1,5.7,5,5.7,5.1,4.4,4.3,4,3.5,4.5,-109.9152149,22.8948129
"Mexico","Matamoros","Unemployment rate (unemployment 15-64 over labour force 15-64)",6.2,6.9,8.6,6.1,6.5,5.3,4.8,4.7,3.6,4,3.5,-97.5027376,25.8690294
"Mexico","Mazatlan","Unemployment rate (unemployment 15-64 over labour force 15-64)",4.1,4.7,5.2,4.3,5.2,5.9,4.5,3.9,3.9,3.9,3.1,-106.4111425,23.2494148
"Mexico","Merida","Unemployment rate (unemployment 15-64 over labour force 15-64)",2.9,2.9,2.6,2.3,3.3,2.5,2.4,2.2,2,1.6,1.9,-89.5925857,20.9673702
"Mexico","Mexicali","Unemployment rate (unemployment 15-64 over labour force 15-64)",5.9,5.4,5.7,6.4,5.4,5.7,4.8,2.5,2.9,2.7,2.5,-115.4522623,32.6245389
"Mexico","Mexico City","Unemployment rate (unemployment 15-64 over labour force 15-64)",7.2,7,6.4,6.3,6.5,7,5.7,5.5,4.3,4.8,5,-99.133208,19.4326077
"Mexico","Minatitlan","Unemployment rate (unemployment 15-64 over labour force 15-64)",2.8,2.7,3.8,3.6,3.8,3.9,3.8,3.9,3.7,3.5,2.7,-94.5466067,17.9939225
"Mexico","Monclova","Unemployment rate (unemployment 15-64 over labour force 15-64)",7.9,8.1,6.5,5.7,5.9,5.4,5.5,4.9,5.2,4.2,5.1,-101.4215236,26.9080378
"Mexico","Monterrey","Unemployment rate (unemployment 15-64 over labour force 15-64)",7.3,6.9,6.2,6.3,5.8,5.7,5,4.3,4.1,3.5,3.6,-100.3161126,25.6866142
"Mexico","Morelia","Unemployment rate (unemployment 15-64 over labour force 15-64)",4.2,4.3,3,3.3,4.4,3.4,3,2.9,2.9,2.1,3.1,-101.1949825,19.7059504
"Mexico","Nogales","Unemployment rate (unemployment 15-64 over labour force 15-64)",5.6,6.5,5.9,5.3,5.6,5.1,5.2,5.2,3.9,3.7,4.2,-110.9381047,31.3011855
"Mexico","Nuevo Laredo","Unemployment rate (unemployment 15-64 over labour force 15-64)",6.2,6.9,8.6,6.1,6.5,5.3,4.8,4.7,3.6,4,3.5,-99.549573,27.4779362
"Mexico","Oaxaca de Juarez","Unemployment rate (unemployment 15-64 over labour force 15-64)",2.3,2.3,2.9,2.5,2.8,2.7,2.6,2.2,2.3,1.5,1.4,-96.7265889,17.0731842
"Mexico","Orizaba","Unemployment rate (unemployment 15-64 over labour force 15-64)",2.8,2.7,3.8,3.6,3.8,3.9,3.8,3.9,3.7,3.5,2.7,-97.1036396,18.8504744
"Mexico","Pachuca de Soto","Unemployment rate (unemployment 15-64 over labour force 15-64)",5.3,4.7,5.2,4.9,4.7,4.3,4.2,3.3,3.2,2.5,2.9,-98.7591311,20.1010608
"Mexico","Poza Rica de Hidalgo","Unemployment rate (unemployment 15-64 over labour force 15-64)",2.8,2.7,3.8,3.6,3.8,3.9,3.8,3.9,3.7,3.5,2.7,-97.4629119,20.5270592
"Mexico","Puebla","Unemployment rate (unemployment 15-64 over labour force 15-64)",4.7,4.4,5.5,4.5,4.4,4.4,3.6,3.2,3.5,2.9,3.1,-98.2062727,19.0414398
"Mexico","Puerto Vallarta","Unemployment rate (unemployment 15-64 over labour force 15-64)",4.5,5,5.9,4.7,4.7,5.2,5.4,3.8,2.7,3.1,3.1,-105.211358,20.6565177
"Mexico","Queretaro","Unemployment rate (unemployment 15-64 over labour force 15-64)",7.9,6.9,6.6,4.4,5.8,5.9,5,4.7,5,3.9,4.6,-100.3898881,20.5887932
"Mexico","Reynosa","Unemployment rate (unemployment 15-64 over labour force 15-64)",6.2,6.9,8.6,6.1,6.5,5.3,4.8,4.7,3.6,4,3.5,-98.2978951,26.0508406
"Mexico","Salamanca","Unemployment rate (unemployment 15-64 over labour force 15-64)",5.1,6.1,6.3,6,6,4.9,4.6,3.9,4.3,3.5,3.9,-101.1957172,20.5739314
"Mexico","Saltillo","Unemployment rate (unemployment 15-64 over labour force 15-64)",7.9,8.1,6.5,5.7,5.9,5.4,5.5,4.9,5.2,4.2,5.1,-100.973678,25.4383234
"Mexico","San Juan del Rio","Unemployment rate (unemployment 15-64 over labour force 15-64)",8.3,7.1,6.7,4.1,5.7,6,5.1,4.9,5.1,4,4.7,-99.9856344,20.3951106
"Mexico","San Luis Potosi","Unemployment rate (unemployment 15-64 over labour force 15-64)",3.8,4.4,4.2,3.4,3.9,3.4,3,2.5,2.7,2.5,2.9,-100.9733024,22.1520892
"Mexico","Tampico","Unemployment rate (unemployment 15-64 over labour force 15-64)",6,6.7,8.3,5.9,6.3,5.2,4.8,4.6,3.6,4,3.5,-97.861099,22.2331041
"Mexico","Tapachula","Unemployment rate (unemployment 15-64 over labour force 15-64)",1.9,2.8,2.1,2.2,3.2,3.5,3.4,3.3,2.5,3.1,3.8,-92.2634136,14.9055567
"Mexico","Tehuacan","Unemployment rate (unemployment 15-64 over labour force 15-64)",4.4,4.1,5.4,4.3,4.2,4.3,3.4,3.1,3.4,2.8,2.9,-97.4003801,18.4665063
"Mexico","Tepic","Unemployment rate (unemployment 15-64 over labour force 15-64)",3.5,3.9,5.3,5.3,5.5,5.9,5.8,4.1,3.7,4.2,4.2,-104.8945887,21.5041651
"Mexico","Tijuana","Unemployment rate (unemployment 15-64 over labour force 15-64)",5.9,5.4,5.7,6.4,5.4,5.7,4.8,2.5,2.9,2.7,2.5,-117.0382471,32.5149469
"Mexico","Tlaxcala","Unemployment rate (unemployment 15-64 over labour force 15-64)",6.7,7.1,6.7,6.3,6.1,6,4.7,4,3.9,3.4,4.2,-98.2374954,19.318154
"Mexico","Toluca","Unemployment rate (unemployment 15-64 over labour force 15-64)",7.4,6.4,6.8,6.2,6,6.8,5.8,5.6,3.7,4.3,4.7,-99.6556653,19.2826098
"Mexico","Torreon","Unemployment rate (unemployment 15-64 over labour force 15-64)",7,6.8,6.8,6.1,5.7,5.8,5.2,5.1,4.8,4.1,4.8,-103.4067861,25.5428443
"Mexico","Tulancingo de Bravo","Unemployment rate (unemployment 15-64 over labour force 15-64)",5.3,4.7,5.2,4.9,4.7,4.3,4.2,3.3,3.2,2.5,2.9,-98.3690922,20.0904802
"Mexico","Tuxtla Gutierrez","Unemployment rate (unemployment 15-64 over labour force 15-64)",1.9,2.8,2.1,2.2,3.2,3.5,3.4,3.3,2.5,3.1,3.8,-93.1029939,16.7516009
"Mexico","Uruapan","Unemployment rate (unemployment 15-64 over labour force 15-64)",4.2,4.3,3,3.3,4.4,3.4,3,2.9,2.9,2.1,3.1,-102.0430476,19.4064492
"Mexico","Veracruz","Unemployment rate (unemployment 15-64 over labour force 15-64)",2.8,2.7,3.8,3.6,3.8,3.9,3.8,3.9,3.7,3.5,2.7,-96.1342241,19.173773
"Mexico","Victoria","Unemployment rate (unemployment 15-64 over labour force 15-64)",6.2,6.9,8.6,6.1,6.5,5.3,4.8,4.7,3.6,4,3.5,-99.1411154,23.7369164
"Mexico","Villahermosa","Unemployment rate (unemployment 15-64 over labour force 15-64)",5.6,7.2,6.5,6.2,7.1,6.9,6.2,7.4,7.6,6.7,7.5,-92.9475061,17.989456
"Mexico","Xalapa","Unemployment rate (unemployment 15-64 over labour force 15-64)",2.8,2.7,3.8,3.6,3.8,3.9,3.8,3.9,3.7,3.5,2.7,-96.9101806,19.5437751
"Mexico","Zamora","Unemployment rate (unemployment 15-64 over labour force 15-64)",4.2,4.3,3,3.3,4.4,3.4,3,2.9,2.9,2.1,3.1,-102.2834075,19.9901766
"Netherlands","'s-Gravenhage","Unemployment rate (unemployment 15-64 over labour force 15-64)",4.8,5.8,5.7,7,8.1,8.6,8,7.2,5.7,4.4,4.2,4.3006999,52.0704978
"Netherlands","'s-Hertogenbosch","Unemployment rate (unemployment 15-64 over labour force 15-64)",4.1,4.7,4.7,5.4,6.8,7.2,6.6,5.4,4.3,3.5,3.3,5.3036748,51.6978162
"Netherlands","Alkmaar","Unemployment rate (unemployment 15-64 over labour force 15-64)",4.2,4.8,5,5.5,7.4,7.1,6.4,5.6,4.6,3.9,3.3,4.7533754,52.6323813
"Netherlands","Amsterdam","Unemployment rate (unemployment 15-64 over labour force 15-64)",4.2,4.9,5.1,5.7,7.6,7.4,6.5,5.8,4.8,4,3.3,4.9041389,52.3675734
"Netherlands","Apeldoorn","Unemployment rate (unemployment 15-64 over labour force 15-64)",3.8,4.6,4.7,5.4,6.7,7.1,6.4,5.8,4.7,3.5,3.2,5.9699231,52.211157
"Netherlands","Arnhem","Unemployment rate (unemployment 15-64 over labour force 15-64)",3.8,4.6,4.7,5.4,6.7,7.1,6.4,5.8,4.7,3.5,3.2,5.8987296,51.9851034
"Netherlands","Breda","Unemployment rate (unemployment 15-64 over labour force 15-64)",4.1,4.7,4.7,5.4,6.8,7.2,6.7,5.4,4.3,3.5,3.3,4.768323,51.5719149
"Netherlands","Eindhoven","Unemployment rate (unemployment 15-64 over labour force 15-64)",4.1,4.7,4.7,5.4,6.8,7.2,6.7,5.4,4.3,3.5,3.3,5.4622897,51.4231423
"Netherlands","Enschede","Unemployment rate (unemployment 15-64 over labour force 15-64)",4,5,4.9,5.7,7.3,7.4,7.1,6.3,5.2,3.8,3.1,6.8936619,52.2215372
"Netherlands","Groningen","Unemployment rate (unemployment 15-64 over labour force 15-64)",6.7,6.1,6.7,7,8.3,8.6,9.1,8.2,7.1,5.5,4.9,6.5665018,53.2193835
"Netherlands","Heerlen","Unemployment rate (unemployment 15-64 over labour force 15-64)",5.7,5.7,4.9,5.5,7.6,7.5,6.4,5.8,4.8,3.5,3.3,5.98035,50.8859774
"Netherlands","Leiden","Unemployment rate (unemployment 15-64 over labour force 15-64)",4.8,5.8,5.7,7,8.1,8.6,8,7.2,5.7,4.4,4.2,4.4970097,52.1601144
"Netherlands","Nijmegen","Unemployment rate (unemployment 15-64 over labour force 15-64)",3.9,4.7,4.7,5.4,6.7,7.1,6.4,5.8,4.7,3.5,3.2,5.8372264,51.8125626
"Netherlands","Rotterdam","Unemployment rate (unemployment 15-64 over labour force 15-64)",4.8,5.8,5.7,7,8.1,8.6,7.9,7.2,5.7,4.4,4.1,4.4777325,51.9244201
"Netherlands","Tilburg","Unemployment rate (unemployment 15-64 over labour force 15-64)",4.1,4.7,4.7,5.4,6.8,7.2,6.7,5.4,4.3,3.5,3.3,5.056375,51.5852528
"Netherlands","Utrecht","Unemployment rate (unemployment 15-64 over labour force 15-64)",3.9,4.3,4.3,5.3,6.5,6.5,6.6,5.1,4.3,3.5,3,5.1214201,52.0907374
"Netherlands","Zwolle","Unemployment rate (unemployment 15-64 over labour force 15-64)",4,5,4.9,5.7,7.2,7.4,7,6.2,5.1,3.8,3.1,6.0830219,52.5167747
"New Zealand","Auckland","Unemployment rate (unemployment 15-64 over labour force 15-64)",5.5,7.4,7,6.8,6.9,6.1,6.1,5.5,5.1,4.5,4.3,174.7644881,-36.8508827
"New Zealand","Christchurch","Unemployment rate (unemployment 15-64 over labour force 15-64)",4,5.2,5.3,5.3,4.5,3.3,3.2,3.4,4,4,3.9,172.6305589,-43.5320214
"New Zealand","Wellington","Unemployment rate (unemployment 15-64 over labour force 15-64)",4.3,5.5,5.2,5.9,6.6,5.5,5.5,5.9,5.3,4.6,4.2,174.7787463,-41.2923814
"Norway","Trondheim","Unemployment rate (unemployment 15-64 over labour force 15-64)",3.7,3.6,3.5,3.3,2.6,3.8,3.7,4,2.9,3.3,3.3,10.3950528,63.4305149
"Poland","Białystok","Unemployment rate (unemployment 15-64 over labour force 15-64)",7.1,10.4,9.4,9.4,10,9.3,7.1,6.8,4.7,3.3,3.2,23.1688403,53.1324886
"Poland","Bielsko-Biała","Unemployment rate (unemployment 15-64 over labour force 15-64)",6.8,9.2,9.3,9.5,9.8,8.7,7.3,5.5,4,3.5,2.4,19.0583845,49.8223768
"Poland","Bydgoszcz","Unemployment rate (unemployment 15-64 over labour force 15-64)",10.5,10.7,11.1,12,12.6,10.8,8,7.5,5.6,4.3,4.1,18.0084378,53.1234804
"Poland","Częstochowa","Unemployment rate (unemployment 15-64 over labour force 15-64)",6.8,9.3,9.3,9.5,9.8,8.7,7.3,5.5,4,3.5,2.5,19.1203094,50.8118195
"Poland","Gdańsk","Unemployment rate (unemployment 15-64 over labour force 15-64)",6.5,9.4,8.5,9.7,10.2,8.8,6.8,5.8,4.3,3,2.8,18.6466384,54.3520252
"Poland","Katowice","Unemployment rate (unemployment 15-64 over labour force 15-64)",6.8,9.3,9.3,9.5,9.8,8.7,7.3,5.5,4,3.5,2.5,19.0237815,50.2648919
"Poland","Kielce","Unemployment rate (unemployment 15-64 over labour force 15-64)",11.1,12.2,13.2,13.4,13.2,11.6,10.2,9.1,7.2,5.9,4.3,20.6285677,50.8660773
"Poland","Kraków","Unemployment rate (unemployment 15-64 over labour force 15-64)",8.1,9.3,9.6,10.7,11.1,9.3,7.3,5.3,4.3,3,2.9,19.9449799,50.0646501
"Poland","Łódź","Unemployment rate (unemployment 15-64 over labour force 15-64)",7.7,9.4,9.4,11.2,11.3,9,7.8,5.7,4.7,4.4,3.7,19.4559833,51.7592485
"Poland","Lublin","Unemployment rate (unemployment 15-64 over labour force 15-64)",9.9,10,10.5,10.7,10.5,10.1,9.5,8.1,7.3,6.5,5.6,22.5684463,51.2464536
"Poland","Nowy Sącz","Unemployment rate (unemployment 15-64 over labour force 15-64)",8.1,9.3,9.5,10.6,11.1,9.3,7.3,5.3,4.2,3,2.9,20.7153326,49.6174535
"Poland","Olsztyn","Unemployment rate (unemployment 15-64 over labour force 15-64)",8.5,9.7,9.7,11.1,11.5,9.9,9.6,8.9,7.3,5.7,3.4,20.4801193,53.778422
"Poland","Opole","Unemployment rate (unemployment 15-64 over labour force 15-64)",10,9.8,9.4,9.5,9.5,7.9,6.6,5,4.4,3.2,3.3,17.9230651,50.6683223
"Poland","Poznań","Unemployment rate (unemployment 15-64 over labour force 15-64)",7.6,8.9,8.7,8.6,8.9,7.8,5.9,4.9,3.2,2.2,2.6,16.9251681,52.406374
"Poland","Radom","Unemployment rate (unemployment 15-64 over labour force 15-64)",18.2,15.9,13.9,12.2,10.6,9,8.4,7.9,6.5,5.8,4.6,21.1471333,51.4027236
"Poland","Rzeszów","Unemployment rate (unemployment 15-64 over labour force 15-64)",10.5,12,12.8,13.6,14.7,14.3,11.8,9.8,8.6,6.6,5.2,21.9991196,50.0411867
"Poland","Szczecin","Unemployment rate (unemployment 15-64 over labour force 15-64)",10.4,12.5,11.9,11,10.2,8.5,7.6,7.1,4.7,3.9,3.3,14.5528116,53.4285438
"Poland","Tarnów","Unemployment rate (unemployment 15-64 over labour force 15-64)",8.1,9.3,9.5,10.6,11.1,9.3,7.3,5.3,4.2,3,2.9,20.9858407,50.0121011
"Poland","Toruń","Unemployment rate (unemployment 15-64 over labour force 15-64)",10.5,10.7,11.1,12,12.6,10.8,8,7.5,5.6,4.3,4.1,18.5984437,53.0137902
"Poland","Wałbrzych","Unemployment rate (unemployment 15-64 over labour force 15-64)",10.2,11.5,10.7,11.3,11.5,9.3,7.1,5.6,4.8,3.3,3.4,16.2843553,50.7840092
"Poland","Warszawa","Unemployment rate (unemployment 15-64 over labour force 15-64)",7.7,9.4,9.4,11.2,6.4,6.1,5.2,4,3.8,2.6,2.2,21.0122287,52.2296756
"Poland","Wrocław","Unemployment rate (unemployment 15-64 over labour force 15-64)",10.2,11.5,10.7,11.3,11.5,9.3,7.1,5.6,4.8,3.3,3.4,17.0385376,51.1078852
"Portugal","Braga","Unemployment rate (unemployment 15-64 over labour force 15-64)",11.5,13.3,13.7,16.9,18,15.5,14.3,12.6,10.2,7.6,7,-8.426507,41.5454486
"Portugal","Coimbra","Unemployment rate (unemployment 15-64 over labour force 15-64)",7.8,8.6,11.1,12.9,12.6,11.6,10,9,7.5,6.1,5.3,-8.4102573,40.2033145
"Portugal","Lisboa","Unemployment rate (unemployment 15-64 over labour force 15-64)",10,11.5,14.4,17.9,18.8,15.2,13.4,12.2,9.7,7.7,7.4,-9.1393366,38.7222524
"Portugal","Porto","Unemployment rate (unemployment 15-64 over labour force 15-64)",11.5,13.3,13.7,16.9,18,15.5,14.3,12.6,10.2,7.6,7,-8.6291053,41.1579438
"Romania","Braşov","Unemployment rate (unemployment 15-64 over labour force 15-64)",10.8,10.5,10.9,9.6,9.6,9.3,7.4,5.2,4.2,4.2,5.4,25.5887252,45.6426802
"Romania","Bucureşti","Unemployment rate (unemployment 15-64 over labour force 15-64)",4,4.7,5.6,6.5,8.1,7.2,5.3,4.8,4.3,3.7,2.5,26.1025384,44.4267674
"Romania","Cǎlǎraşi","Unemployment rate (unemployment 15-64 over labour force 15-64)",8.5,8.2,10.5,10,10.1,9.5,10.8,9.3,7.1,5.7,4.9,24.96676,45.943161
"Romania","Cluj-Napoca","Unemployment rate (unemployment 15-64 over labour force 15-64)",5.8,6.8,5.3,4.7,4.2,3.9,4.8,4.4,3.7,2.9,3.1,23.6236353,46.7712101
"Romania","Constanţa","Unemployment rate (unemployment 15-64 over labour force 15-64)",7.8,8.5,10,9.8,9.9,10.7,9.3,7.9,6.7,6.2,6.5,28.6519359,44.1759147
"Romania","Craiova","Unemployment rate (unemployment 15-64 over labour force 15-64)",7.4,8,7.2,6.6,7.6,7,10.7,10.5,8.2,6.8,5.5,23.7948808,44.3301785
"Romania","Iaşi","Unemployment rate (unemployment 15-64 over labour force 15-64)",6.5,5.9,5,4.5,4.8,4.5,3.9,3.2,3.1,2.6,2.2,27.6014418,47.1584549
"Romania","Timişoara","Unemployment rate (unemployment 15-64 over labour force 15-64)",6.1,6.1,5.8,5.2,5.3,4.9,5.4,4.9,4.4,3.7,3.4,21.2086793,45.7488716
"Slovak Republic","Bratislava","Unemployment rate (unemployment 15-64 over labour force 15-64)",4.8,6.2,5.8,5.7,6.5,6,5.7,4.9,4.3,3,2.4,17.1077477,48.1485965
"Slovak Republic","Košice","Unemployment rate (unemployment 15-64 over labour force 15-64)",15.5,18.3,19.6,19.7,18.7,15.6,13.1,11.5,11.1,10.2,8,21.2610746,48.7163857
"Slovenia","Osrednjeslovenska","Unemployment rate (unemployment 15-64 over labour force 15-64)",4.4,6.6,7.3,7.4,8.3,7.9,7.4,6.5,6.3,5,4.5,14.995463,46.151241
"Slovenia","Podravska","Unemployment rate (unemployment 15-64 over labour force 15-64)",8.6,9.3,10,10.8,11.9,12.2,11.2,9.1,7.3,5.9,5.2,14.995463,46.151241
"Spain","A Coruña","Unemployment rate (unemployment 15-64 over labour force 15-64)",11.6,14.1,16,18.5,20.4,20.1,17.5,15.5,14.3,12.4,10.3,-8.4115401,43.3623436
"Spain","Alicante/Alacant","Unemployment rate (unemployment 15-64 over labour force 15-64)",22.1,24.2,24,28.1,28.3,26.2,24.3,21,18.2,16.3,15,-0.4906855,38.3459963
"Spain","Barcelona","Unemployment rate (unemployment 15-64 over labour force 15-64)",16.3,17.9,19.3,22.7,23.3,20.1,18.4,15.6,13.2,11.2,11,2.168568,41.3873974
"Spain","Bilbao","Unemployment rate (unemployment 15-64 over labour force 15-64)",12.6,12.2,14.3,17,18,17.5,16.2,14.3,12.8,11.7,10.6,-2.9349852,43.2630126
"Spain","Cádiz","Unemployment rate (unemployment 15-64 over labour force 15-64)",26.9,30.7,32.7,36.5,39.7,42.4,38.4,34.5,30.5,27.6,25.1,-6.2804565,36.5210142
"Spain","Castellón de la Plana/Castelló de la Plana","Unemployment rate (unemployment 15-64 over labour force 15-64)",19.7,24.1,26.1,27.3,29.3,27.2,22.7,19.6,16.7,15.5,13.8,-0.0559939,40.0017505
"Spain","Córdoba","Unemployment rate (unemployment 15-64 over labour force 15-64)",26.1,28.2,31.7,34.8,35.3,33.8,30.2,30.4,28.3,24.8,23.1,-4.7793835,37.8881751
"Spain","Elche/Elx","Unemployment rate (unemployment 15-64 over labour force 15-64)",22.1,24.2,24,28.1,28.3,26.2,24.3,21,18.2,16.3,15,-0.7125608,38.2699329
"Spain","Gijón","Unemployment rate (unemployment 15-64 over labour force 15-64)",13.5,16,18,22,24.3,21.3,19.2,17.8,13.9,13.8,14.4,-5.6611195,43.5322015
"Spain","Granada","Unemployment rate (unemployment 15-64 over labour force 15-64)",26.3,28.8,29.2,35.7,37.1,36.1,31,30,26,24.1,22.3,-3.5984368,37.1774605
"Spain","Madrid","Unemployment rate (unemployment 15-64 over labour force 15-64)",14.1,16.1,16.6,19,20.1,19.1,17.4,16,13.6,12.4,10.8,-3.7037902,40.4167754
"Spain","Málaga","Unemployment rate (unemployment 15-64 over labour force 15-64)",26.3,29.3,30.9,34.4,35.9,32.8,29.8,26.2,22.6,19.2,17.7,-4.4217199,36.7211784
"Spain","Marbella","Unemployment rate (unemployment 15-64 over labour force 15-64)",26.3,29.3,30.9,34.4,35.9,32.8,29.8,26.2,22.6,19.2,17.7,-4.8852579,36.5102831
"Spain","Murcia","Unemployment rate (unemployment 15-64 over labour force 15-64)",20.4,23,25.1,27.7,29.1,26.7,24.7,19.9,18.1,16.9,14.8,-1.1306544,37.9922399
"Spain","Oviedo","Unemployment rate (unemployment 15-64 over labour force 15-64)",13.5,16,18,22,24.3,21.3,19.2,17.8,13.9,13.8,14.4,-5.8485461,43.3622522
"Spain","Pamplona/Iruña","Unemployment rate (unemployment 15-64 over labour force 15-64)",10.9,11.9,13,16.3,18,15.7,13.9,12.5,10.3,10.1,8.3,-1.6457745,42.812526
"Spain","San Sebastián/Donostia","Unemployment rate (unemployment 15-64 over labour force 15-64)",9.4,8.1,10.2,13,14.2,14.4,12.8,10.3,9,7.8,7.2,-1.9812313,43.318334
"Spain","Santander","Unemployment rate (unemployment 15-64 over labour force 15-64)",12.1,13.8,15.4,17.9,20.6,19.5,17.8,15,13.6,10.8,10.4,-3.8226402,43.4636346
"Spain","Sevilla","Unemployment rate (unemployment 15-64 over labour force 15-64)",23.6,25.4,27.2,31.6,34.1,32.8,30.6,27.8,24.4,22.5,21.6,-5.9844589,37.3890924
"Spain","Tarragona","Unemployment rate (unemployment 15-64 over labour force 15-64)",17.2,18.7,20.1,23.6,27.1,23.6,22.1,19.1,16.2,15.1,13.5,1.2444909,41.1188827
"Spain","Valencia","Unemployment rate (unemployment 15-64 over labour force 15-64)",20.3,21.8,23.7,26.7,27.9,25.5,21.9,20.8,18.7,15.3,13.7,-0.3762881,39.4699075
"Spain","Valladolid","Unemployment rate (unemployment 15-64 over labour force 15-64)",12.7,15.2,16.8,19,20.2,18.2,16.1,14.2,14,11,11,-4.7245321,41.652251
"Spain","Vigo","Unemployment rate (unemployment 15-64 over labour force 15-64)",15.4,18.3,20.8,24.7,24.9,24.8,22.6,19.6,18.5,16.1,14.4,-8.7207268,42.2405989
"Spain","Vitoria/Gasteiz","Unemployment rate (unemployment 15-64 over labour force 15-64)",11.8,11.4,10.9,16.6,17.5,17.2,15.1,12,11.3,9.2,8.3,-2.6732421,42.8531869
"Spain","Zaragoza","Unemployment rate (unemployment 15-64 over labour force 15-64)",14,15.9,18.4,20,22.6,20.9,16.7,15.5,12.2,11.1,10.3,-0.8890853,41.6488226
"Switzerland","Basel","Unemployment rate (unemployment 15-64 over labour force 15-64)",5.32,5,5.3,5.3,5.2,5.2,5.9,5.6,4.8,5.6,5.3,7.5885761,47.5595986
"Switzerland","Bern","Unemployment rate (unemployment 15-64 over labour force 15-64)",3.84,3.6,3.6,3.2,4,3.8,4.5,4.3,3.8,3.7,3.9,7.4474468,46.9479739
"Switzerland","Genève","Unemployment rate (unemployment 15-64 over labour force 15-64)",10.04,9.1,9.8,10.2,9.7,9.9,10,10.8,10.3,10.7,9.9,6.1431577,46.2043907
"Switzerland","Lausanne","Unemployment rate (unemployment 15-64 over labour force 15-64)",7.42,6.5,7,7.7,7.2,7.3,7.5,7.9,7.8,7.7,7.6,6.6322734,46.5196535
"Switzerland","Zürich","Unemployment rate (unemployment 15-64 over labour force 15-64)",4.39,3.6,4,4.4,4.3,4.1,4.8,5,4.3,4.7,4.7,8.541694,47.3768866
"Türkiye","Adana","Unemployment rate (unemployment 15-64 over labour force 15-64)",20.3,15.2,9.5,9.2,11.5,10.9,10,10.5,10.9,11.4,12.1,35.3308285,36.9914194
"Türkiye","Ankara","Unemployment rate (unemployment 15-64 over labour force 15-64)",12.3,10.8,8.6,8.4,9.1,11.5,11.2,11.4,11.4,10.2,14.3,32.8597419,39.9333635
"Türkiye","Antalya","Unemployment rate (unemployment 15-64 over labour force 15-64)",10.4,10.1,8.9,7.5,7.4,8.5,9.8,11.7,12.3,11.8,13.5,30.7133233,36.8968908
"Türkiye","Balikesir","Unemployment rate (unemployment 15-64 over labour force 15-64)",7.3,6.3,4.5,4.7,5.7,5.8,5.4,7,6.1,5.8,8.5,27.8903423,39.6532976
"Türkiye","Bursa","Unemployment rate (unemployment 15-64 over labour force 15-64)",12.9,9.3,6.8,6.5,6.2,6.3,7.9,9.3,10,9.2,11.4,29.0609636,40.1885281
"Türkiye","Denizli","Unemployment rate (unemployment 15-64 over labour force 15-64)",13.2,10.6,7.8,6.8,6.2,7.4,7.1,6.9,7.3,7.1,9.5,29.0963328,37.7830159
"Türkiye","Diyarbakir","Unemployment rate (unemployment 15-64 over labour force 15-64)",16.9,11.3,6.9,6.1,16.2,17.6,17.7,17.3,14,18.9,23.5,40.2109826,37.9249733
"Türkiye","Erzurum","Unemployment rate (unemployment 15-64 over labour force 15-64)",6.6,5.7,5.8,5.7,6.3,7.8,6.3,5.4,5.6,7.9,11.7,41.2658236,39.9054993
"Türkiye","Gaziantep","Unemployment rate (unemployment 15-64 over labour force 15-64)",14.6,11.6,13.4,10.8,6.4,8.2,10.1,14.5,15.4,13,15.4,37.37811,37.065953
"Türkiye","Hatay","Unemployment rate (unemployment 15-64 over labour force 15-64)",15.2,12,10.7,9.3,11.1,15.6,16.6,14.6,11.7,14.5,18.5,36.1618938,36.2042794
"Türkiye","Istanbul","Unemployment rate (unemployment 15-64 over labour force 15-64)",16,13.6,11.2,10.8,10.7,11.9,12.9,13.5,13.9,12.5,15,28.9783589,41.0082376
"Türkiye","Izmir","Unemployment rate (unemployment 15-64 over labour force 15-64)",15.6,14.3,14,13.5,14.6,13.9,15,14.1,14.2,13.9,16,27.142826,38.423734
"Türkiye","Kayseri","Unemployment rate (unemployment 15-64 over labour force 15-64)",11.4,12.5,10.1,7.6,8.7,9.7,10,8.7,12.3,13.5,14.9,35.482597,38.720489
"Türkiye","Kocaeli","Unemployment rate (unemployment 15-64 over labour force 15-64)",13.2,11.4,11,9.1,9.3,10.3,10.4,10.9,11,10.4,13.7,29.9408089,40.7654408
"Türkiye","Konya","Unemployment rate (unemployment 15-64 over labour force 15-64)",9.1,7.3,5.7,5.1,3.9,5.8,6.7,6.3,6.1,6.1,8.2,32.4931554,37.8746429
"Türkiye","Malatya","Unemployment rate (unemployment 15-64 over labour force 15-64)",15.5,11,8.1,6.1,5.9,7.8,8.3,9.3,7.3,8.5,10.4,38.3335247,38.3553627
"Türkiye","Manisa","Unemployment rate (unemployment 15-64 over labour force 15-64)",9.8,7,4.6,4.2,5.4,4.1,4.2,5.1,6.4,7.1,10.2,27.4295624,38.6140337
"Türkiye","Samsun","Unemployment rate (unemployment 15-64 over labour force 15-64)",6.3,6.3,4.9,5.2,5.8,6.6,6.8,8.3,7.1,6.7,8.6,36.3360667,41.2797031
"Türkiye","Trabzon","Unemployment rate (unemployment 15-64 over labour force 15-64)",4.5,5.1,5.7,5.7,6.4,6.7,5.1,4.9,3.9,6.5,10.5,39.7167633,41.0026969
"Türkiye","Van","Unemployment rate (unemployment 15-64 over labour force 15-64)",14.8,15.7,11.2,7.7,9.4,13.8,9.6,9.4,12.9,21.9,26.4,43.3729793,38.5012085
"United Kingdom","Aberdeen","Unemployment rate (unemployment 15-64 over labour force 15-64)",2.8,4.9,5.8,4.6,4.5,4.3,3.2,5.9,3.5,5.4,2.9,-2.0937528,57.1498891
"United Kingdom","Blackburn with Darwen","Unemployment rate (unemployment 15-64 over labour force 15-64)",8.3,7.6,7.5,9,8,8,5.7,4.6,4.8,4.8,3.5,-2.4682985,53.6957522
"United Kingdom","Blackpool","Unemployment rate (unemployment 15-64 over labour force 15-64)",6.7,7.3,7.7,8.6,6.6,4.8,4.5,5.2,4.7,5.2,3.6,-3.0370485,53.8167423
"United Kingdom","Bournemouth","Unemployment rate (unemployment 15-64 over labour force 15-64)",5.8,4.7,5.8,5.1,5.3,4.6,3.6,4.3,2.9,2.9,2.5,-1.8667169,50.7220101
"United Kingdom","Brighton and Hove","Unemployment rate (unemployment 15-64 over labour force 15-64)",7.8,6.5,6.7,8.2,6.7,5.9,5.6,5.4,5,5.7,3.3,-0.137047,50.8226288
"United Kingdom","Bristol","Unemployment rate (unemployment 15-64 over labour force 15-64)",6.6,5.6,7.3,7.1,6.5,6.4,4.4,3.9,3.9,3.5,3.9,-2.58791,51.454513
"United Kingdom","Cambridge","Unemployment rate (unemployment 15-64 over labour force 15-64)",6,5.5,6.2,7.1,5.1,4.4,3.6,3.7,1.5,2.5,1.9,0.1312729,52.1950788
"United Kingdom","Cardiff","Unemployment rate (unemployment 15-64 over labour force 15-64)",9.4,10.2,9.9,11.1,9.9,7.8,6.7,5.4,6,5.4,4.2,-3.1680962,51.483707
"United Kingdom","Cheshire West and Chester","Unemployment rate (unemployment 15-64 over labour force 15-64)",6.7,7.7,5.9,6.8,6.2,4.2,3.9,3.3,5.1,3.7,2.8,-2.7151117,53.2302974
"United Kingdom","Colchester","Unemployment rate (unemployment 15-64 over labour force 15-64)",6.8,6.5,7,8.3,7.1,7.4,3.6,3.8,4.9,3.6,4.2,0.891874,51.895927
"United Kingdom","Coventry","Unemployment rate (unemployment 15-64 over labour force 15-64)",8.3,7.3,8.8,7.2,6.4,4.7,3.3,3.8,3.7,3.3,3.6,-1.5089521,52.4128163
"United Kingdom","Derby","Unemployment rate (unemployment 15-64 over labour force 15-64)",7.7,8,9,7.9,6.9,6.2,5.3,2.8,2.7,3.2,2.7,-1.4746186,52.9225301
"United Kingdom","Doncaster","Unemployment rate (unemployment 15-64 over labour force 15-64)",10.8,9.4,11.8,10.8,11.1,9,6.9,6.6,5.8,5.9,6,-1.128462,53.52282
"United Kingdom","Dundee City","Unemployment rate (unemployment 15-64 over labour force 15-64)",7.2,8.3,9.7,8.5,10.6,8.4,7.9,5.3,4.5,5.4,4.3,-2.970721,56.462018
"United Kingdom","Edinburgh","Unemployment rate (unemployment 15-64 over labour force 15-64)",6.5,6.5,7,5.7,6.9,4.8,5.6,4,2.8,4.3,2.6,-3.188267,55.953252
"United Kingdom","Exeter","Unemployment rate (unemployment 15-64 over labour force 15-64)",5.7,5.8,5.7,3.8,4.5,3.8,2.2,4.2,1.3,2.6,1.4,-3.5274889,50.7260367
"United Kingdom","Glasgow","Unemployment rate (unemployment 15-64 over labour force 15-64)",8.5,10.1,9.9,10.1,9.2,7.7,6.7,4.8,4.8,4.7,4,-4.2583345,55.8616704
"United Kingdom","Guildford","Unemployment rate (unemployment 15-64 over labour force 15-64)",4.5,3,4.3,4.5,5.1,5,3.5,3.6,2.2,1.7,1.5,-0.570409,51.23622
"United Kingdom","Ipswich","Unemployment rate (unemployment 15-64 over labour force 15-64)",5.6,6.2,5.6,6.4,6.2,5.3,4.2,3.1,4.2,3.8,1.8,1.14822,52.056736
"United Kingdom","Kingston upon Hull","Unemployment rate (unemployment 15-64 over labour force 15-64)",9.3,9.6,9.3,11,10.6,7.6,6.2,5.7,5.3,4.8,5.4,-0.3274198,53.7676236
"United Kingdom","Leeds","Unemployment rate (unemployment 15-64 over labour force 15-64)",8,9.2,9.4,9,8.8,7.4,6,4.9,4.7,4,4.2,-1.5490774,53.8007554
"United Kingdom","Leicester","Unemployment rate (unemployment 15-64 over labour force 15-64)",7.6,8.2,9.3,8.4,9.8,5.5,5.6,4.8,4.5,4.6,3.5,-1.1397592,52.6368778
"United Kingdom","Lincoln","Unemployment rate (unemployment 15-64 over labour force 15-64)",6.2,5.9,6.9,8.3,7.4,4.5,5.4,3.7,4.2,4.4,3.4,-0.5426827,53.2294565
"United Kingdom","Liverpool","Unemployment rate (unemployment 15-64 over labour force 15-64)",10.1,9.6,9.8,9.7,9.5,9.2,5.5,5.2,4.8,3.5,4,-2.9915726,53.4083714
"United Kingdom","London","Unemployment rate (unemployment 15-64 over labour force 15-64)",8.2,8.2,8.7,8.4,7.9,6.5,5.5,5.1,4.6,4.5,4.1,-0.1275862,51.5072178
"United Kingdom","Manchester","Unemployment rate (unemployment 15-64 over labour force 15-64)",9.2,8.3,9.2,9,8.6,7.3,6.1,5.9,4.5,4.4,4.9,-2.2426305,53.4807593
"United Kingdom","Medway","Unemployment rate (unemployment 15-64 over labour force 15-64)",11.4,8.5,9.5,8.2,10.4,8.4,9.2,6.5,5.8,3.9,3.4,0.5417861,51.4047432
"United Kingdom","Middlesbrough","Unemployment rate (unemployment 15-64 over labour force 15-64)",10.5,11.6,13.1,13.5,11.5,10.5,9,6.7,7,7.7,6.5,-1.234956,54.574227
"United Kingdom","Milton Keynes","Unemployment rate (unemployment 15-64 over labour force 15-64)",8.3,9.6,6.4,8.9,7.5,7.5,5,2,4.8,4.8,4.8,-0.7594171,52.0406224
"United Kingdom","Newcastle upon Tyne","Unemployment rate (unemployment 15-64 over labour force 15-64)",9.3,9.4,10,9.9,8.7,8.1,7.2,6.6,6,4.9,5.4,-1.61778,54.978252
"United Kingdom","Northampton","Unemployment rate (unemployment 15-64 over labour force 15-64)",7.4,6,7,5.1,6.6,4.4,2.1,3.6,6.1,4.3,3.3,-0.8944421,52.237065
"United Kingdom","Norwich","Unemployment rate (unemployment 15-64 over labour force 15-64)",5.9,7.2,7.1,6,7.3,4.8,3.4,4.1,5.1,4.2,3.6,1.2978802,52.6292567
"United Kingdom","Nottingham","Unemployment rate (unemployment 15-64 over labour force 15-64)",9.1,9.1,9.1,9.3,8.3,7.7,5.8,4.9,4.9,4.4,4.9,-1.1549892,52.9540223
"United Kingdom","Oxford","Unemployment rate (unemployment 15-64 over labour force 15-64)",4.9,3,3.4,6.2,4.3,3.5,3.4,3.6,3.8,1.3,0.3,-1.2577263,51.7520209
"United Kingdom","Plymouth","Unemployment rate (unemployment 15-64 over labour force 15-64)",6.9,6.1,6.5,8.5,8.6,5.1,5,4.7,4,3.9,3.5,-4.1426565,50.3754565
"United Kingdom","Portsmouth","Unemployment rate (unemployment 15-64 over labour force 15-64)",6,7.3,6.6,6.3,6.5,3.9,4.9,5.9,3.1,3.7,3.5,-1.0879769,50.8197675
"United Kingdom","Preston","Unemployment rate (unemployment 15-64 over labour force 15-64)",5.9,6.3,7.2,8.6,5.2,4.2,3.6,2.2,3.1,3.4,1,-2.70309,53.763201
"United Kingdom","Reading","Unemployment rate (unemployment 15-64 over labour force 15-64)",5.8,5.3,5.6,5.2,4.6,4.5,3.8,3.6,2.9,3.1,2.8,-0.9787475,51.4551201
"United Kingdom","Sheffield","Unemployment rate (unemployment 15-64 over labour force 15-64)",9.6,8.7,10.9,10.6,10,8.8,7.4,6.3,6,5.5,4.9,-1.470085,53.381129
"United Kingdom","Southampton","Unemployment rate (unemployment 15-64 over labour force 15-64)",5.8,6.3,5.8,5.5,6.1,4.2,4.6,4,3,3.9,3.6,-1.4049018,50.9105468
"United Kingdom","Stoke-on-Trent","Unemployment rate (unemployment 15-64 over labour force 15-64)",8.8,8.3,9.4,6.8,6.9,6.4,5.8,4.6,4.9,4.7,3.4,-2.1827408,53.0033369
"United Kingdom","Sunderland","Unemployment rate (unemployment 15-64 over labour force 15-64)",11.1,10.4,12.9,8.5,13.8,8.5,8.8,8.2,6.2,7.3,7.1,-1.383801,54.906869
"United Kingdom","Swansea","Unemployment rate (unemployment 15-64 over labour force 15-64)",9.4,8.5,9.4,8.7,8.9,7.6,7.9,6,5,5.6,4.1,-3.943646,51.62144
"United Kingdom","West Midlands urban area","Unemployment rate (unemployment 15-64 over labour force 15-64)",11.6,11.2,11,11,11.2,8.9,7.6,7.2,6.5,5.8,6.1,-1.829833,52.4750743
